citycode	countrycode	latitude	longitude
AAA	PF	-17.352500000000003	-145.51
AAC	EG	31.073333333333334	33.83583333333333
AAD	SO	6.096111111111111	46.6375
AAE	DZ	36.82222222222222	7.809166666666666
AAK	KI	0.18527777777777776	173.63694444444442
AAL	DK	57.1	9.85
AAN	AE	24.261666666666667	55.60916666666667
AAP	ID	-0.37305555555555553	117.25083333333333
AAR	DK	56.15	10.216666666666667
AAT	CN	47.75055555555556	88.08583333333333
AAX	BR	-19.563333333333333	-46.96027777777778
AAY	YE	16.19361111111111	52.17305555555555
AAZ	GT	14.863888888888889	-91.52027777777778
ABA	RU	53.74	91.385
ABB	NG	6.203055555555555	6.6672222222222235
ABC	ES	38.994166666666665	-1.8583333333333334
ABD	IR	30.371111111111112	48.22833333333333
ABE	US	40.65222222222222	-75.44083333333333
ABF	KI	1.3816666666666666	173.14749999999998
ABI	US	32.416666666666664	-99.68333333333334
ABJ	CI	5.261388888888889	-3.926388888888889
ABL	US	67.10722222222222	-157.85333333333332
ABM	AU	-10.950833333333332	142.45944444444444
ABQ	US	35.04055555555556	-106.60944444444443
ABR	US	45.453611111111115	-98.42555555555556
ABS	EG	22.375833333333333	31.611666666666668
ABT	SA	20.296111111111113	41.634166666666665
ABU	ID	-9.075	124.9038888888889
ABV	NG	9.006666666666666	7.263055555555556
ABX	AU	-36.06777777777778	146.95805555555555
ABY	US	31.535555555555558	-84.19444444444444
ABZ	GB	57.20416666666667	-2.200277777777778
ACA	MX	16.756944444444443	-99.7538888888889
ACC	GH	5.605277777777777	-0.16666666666666666
ACE	ES	28.945555555555554	-13.605277777777777
ACF	CN	40.44944444444444	81.2675
ACH	CH	47.485	9.560833333333335
ACI	GB	49.706944444444446	-2.215555555555556
ACK	US	41.253055555555555	-70.06027777777777
ACP	IR	37.34805555555556	46.13305555555556
ACT	US	31.616666666666667	-97.23333333333333
ACV	US	40.97805555555556	-124.1086111111111
ACX	CN	25.085555555555555	104.95944444444444
ACY	US	39.36277777777778	-74.4263888888889
ACZ	IR	31.098333333333333	61.54388888888889
ADA	TR	36.98222222222223	35.280277777777776
ADD	ET	8.977777777777778	38.79944444444444
ADE	YE	12.829444444444444	45.028888888888886
ADF	TR	37.731388888888894	38.46888888888889
ADK	US	51.88111111111111	-176.6483333333333
ADL	AU	-34.93333333333333	138.6
ADM	US	34.3	-97.01666666666667
ADQ	US	57.75	-152.48333333333332
ADU	IR	38.32555555555556	48.424166666666665
ADZ	CO	12.58361111111111	-81.71111111111111
AEA	KI	0.4905555555555556	173.82999999999998
AEB	CN	23.72	106.96027777777778
AEG	ID	1.4	99.43
AEM	RU	45.8425	137.67777777777778
AER	RU	43.45	39.95666666666667
AES	NO	62.56027777777778	6.110277777777777
AET	US	66.55055555555555	-152.63194444444446
AEU	IR	25.875555555555557	55.0325
AEX	US	31.316666666666666	-92.51666666666667
AEY	IS	65.65861111111111	-18.072222222222223
AFA	AR	-34.58861111111111	-68.40277777777779
AFL	BR	-9.866111111111111	-56.10611111111111
AGA	MA	30.325	-9.413055555555555
AGH	SE	56.29611111111111	12.847222222222223
AGM	GL	65.6125	-37.618611111111115
AGN	US	57.495	-134.56722222222223
AGP	ES	36.72138888888889	-4.421388888888889
AGR	IN	27.15583333333333	77.96083333333334
AGS	US	33.36666666666667	-81.96666666666667
AGT	PY	-25.455555555555556	-54.843611111111116
AGU	MX	21.705555555555556	-102.31777777777778
AGV	VE	9.55	-69.23333333333333
AGX	IN	10.823611111111111	72.17611111111111
AHB	SA	18.240277777777777	42.656666666666666
AHE	PF	-14.428055555555554	-146.25694444444446
AHJ	CN	32.53138888888889	102.35194444444444
AHO	IT	40.63027777777778	8.289722222222222
AHU	MA	35.17722222222222	-3.8394444444444447
AIA	US	42.051944444444445	-102.80777777777777
AIC	MH	7.279444444444445	168.82583333333332
AIM	MH	10.216944444444444	169.9836111111111
AIN	US	70.61361111111111	-159.86694444444444
AIR	BR	-10.19111111111111	-59.456944444444446
AIS	KI	-2.616388888888889	176.8025
AIT	CK	-18.83111111111111	-159.76472222222222
AIU	CK	-19.966666666666665	-158.125
AJA	FR	41.92388888888889	8.8025
AJF	SA	29.785	40.1
AJI	TR	39.653888888888886	43.02638888888889
AJL	IN	23.83888888888889	92.62027777777777
AJN	KM	-12.131111111111112	44.42972222222222
AJR	SE	65.59027777777777	19.281944444444445
AJU	BR	-10.983888888888888	-37.07027777777778
AKA	CN	32.70777777777778	108.93222222222222
AKB	US	52.218333333333334	-174.20638888888888
AKH	SA	24.063333333333333	47.580555555555556
AKI	US	60.901666666666664	-161.23222222222222
AKJ	JP	43.670833333333334	142.4475
AKK	US	56.93861111111111	-154.1838888888889
AKL	NZ	-36.86666666666667	174.76666666666668
AKN	US	58.67666666666666	-156.64916666666667
AKP	US	68.13361111111112	-151.7433333333333
AKR	NG	7.248611111111111	5.301944444444445
AKS	SB	-8.702499999999999	160.68194444444444
AKU	CN	41.26277777777778	80.29194444444444
AKV	CA	60.81861111111112	-78.14861111111112
AKX	KZ	50.24583333333334	57.20666666666667
AKY	MM	20.13277777777778	92.87249999999999
ALA	KZ	43.35333333333333	77.04222222222222
ALB	US	42.733333333333334	-73.8
ALC	ES	38.34583333333334	-0.4905555555555556
ALF	NO	69.97611111111111	23.371666666666666
ALG	DZ	36.69416666666666	3.2147222222222225
ALH	AU	-34.94333333333333	117.80888888888889
ALI	US	27.739166666666666	-98.02694444444444
ALM	US	32.833333333333336	-106.0
ALO	US	42.55694444444444	-92.40027777777779
ALP	SY	36.18055555555555	37.224444444444444
ALQ	BR	-29.8	-55.733333333333334
ALS	US	37.4375	-105.86638888888888
ALW	US	46.095	-118.28777777777778
ALY	EG	31.216666666666665	29.916666666666668
ALZ	US	56.89888888888889	-154.2497222222222
AMA	US	35.233333333333334	-101.7
AMD	IN	23.077222222222222	72.63472222222222
AMH	ET	6.039444444444444	37.59055555555556
AMM	JO	31.966666666666665	35.983333333333334
AMQ	ID	-3.710277777777778	128.08916666666667
AMS	NL	52.308055555555555	4.764166666666667
AMZ	NZ	-37.03333333333333	174.96944444444443
ANA	KE	-1.2716666666666665	34.95527777777778
ANC	US	61.166666666666664	-149.98333333333332
ANE	FR	47.483333333333334	-0.5333333333333333
ANF	CL	-23.444444444444446	-70.44500000000001
ANI	US	61.58222222222223	-159.54416666666665
ANK	TR	39.93333333333333	32.86666666666667
ANR	BE	51.18944444444444	4.460277777777778
ANU	AG	17.136666666666667	-61.79277777777778
ANV	US	62.649166666666666	-160.18972222222223
ANX	NO	69.2925	16.144166666666667
AOE	TR	39.809999999999995	30.516944444444444
AOG	CN	41.105555555555554	122.8561111111111
AOI	IT	43.61666666666667	13.360277777777778
AOJ	JP	40.734722222222224	140.69083333333333
AOK	GR	35.421388888888885	27.14611111111111
AOO	US	40.296388888888885	-78.32
AOQ	GL	72.88694444444445	-55.596111111111114
AOR	MY	6.194444444444445	100.40083333333334
AOS	US	57.471111111111114	-153.81555555555556
APF	US	26.153333333333332	-81.77527777777777
APJ	CN	30.398611111111112	81.1325
APK	PF	-15.573611111111111	-146.4152777777778
APL	MZ	-15.105555555555556	39.281666666666666
APN	US	45.07805555555556	-83.56027777777777
APO	CO	7.8125	-76.71666666666667
APW	WS	-13.833333333333334	-172.0
AQG	CN	30.5825	117.05027777777778
AQI	SA	28.335277777777776	46.125
AQJ	JO	29.611666666666668	35.018055555555556
AQP	PE	-16.340833333333332	-71.57249999999999
ARC	US	68.11472222222221	-145.57944444444445
ARD	ID	-8.133055555555556	124.59694444444445
ARH	RU	64.60027777777778	40.71666666666667
ARI	CL	-18.34861111111111	-70.3386111111111
ARK	TZ	-3.3672222222222223	36.625
ARM	AU	-30.528055555555554	151.61722222222224
ART	US	43.99194444444444	-76.02166666666666
ARU	BR	-21.141388888888887	-50.42472222222222
ARW	RO	46.17666666666666	21.261944444444445
ARX	BR	-4.569166666666667	-37.80555555555555
ASB	TM	37.98694444444445	58.36083333333333
ASD	BS	24.698333333333334	-77.79555555555555
ASE	US	39.219166666666666	-106.86722222222221
ASF	RU	46.28333333333333	48.006388888888885
ASJ	JP	28.430555555555557	129.71249999999998
ASK	CI	6.903888888888889	-5.365555555555555
ASM	ER	15.291944444444445	38.910555555555554
ASO	ET	10.018611111111111	34.58638888888889
ASP	AU	-23.7	133.86666666666667
ASR	TR	38.77027777777778	35.495555555555555
ASU	PY	-25.239722222222223	-57.51916666666666
ASV	KE	-2.645	37.25277777777778
ASW	EG	23.964444444444442	32.82
ATD	SB	-8.873333333333333	161.0113888888889
ATH	GR	37.936388888888885	23.944444444444446
ATK	US	70.46722222222222	-157.43583333333333
ATL	US	33.65	-84.43333333333334
ATM	BR	-3.253888888888889	-52.25388888888889
ATP	PG	-3.1333333333333333	142.35
ATQ	IN	31.709722222222222	74.79722222222222
ATT	US	60.86694444444444	-162.2738888888889
ATW	US	44.266666666666666	-88.51666666666667
ATY	US	44.91361111111111	-97.15111111111112
ATZ	EG	27.04638888888889	31.011944444444445
AUA	AW	12.501388888888888	-70.01527777777778
AUC	CO	7.068888888888889	-70.73694444444445
AUG	US	44.31805555555556	-69.79694444444445
AUH	AE	24.466666666666665	54.36666666666667
AUK	US	62.678888888888885	-164.65083333333334
AUL	MH	8.3025	171.1613888888889
AUQ	PF	-9.76888888888889	-139.0113888888889
AUR	FR	44.8975	2.4166666666666665
AUS	US	30.3	-97.78333333333333
AUU	AU	-13.35388888888889	141.72083333333333
AUW	US	44.766666666666666	-89.68055555555556
AUX	BR	-7.228055555555556	-48.24027777777778
AUY	VU	-20.249444444444446	169.77083333333334
AVA	CN	26.25722222222222	105.87277777777777
AVL	US	35.43611111111111	-82.54194444444444
AVN	FR	43.93333333333333	4.8
AVP	US	41.333333333333336	-75.71666666666667
AWA	ET	7.0675	38.49055555555556
AWD	VU	-19.2375	169.6011111111111
AWZ	IR	31.3375	48.76027777777778
AXA	AI	18.204722222222223	-63.055
AXD	GR	40.85583333333334	25.95638888888889
AXF	CN	38.823888888888895	105.6261111111111
AXJ	JP	32.48222222222223	130.1588888888889
AXM	CO	4.452777777777778	-75.76638888888888
AXP	BS	22.441944444444445	-73.97083333333333
AXR	PF	-15.248333333333333	-146.61666666666667
AXT	JP	39.61555555555556	140.2186111111111
AYJ	IN	26.75138888888889	82.15555555555557
AYL	AU	-18.016666666666666	135.55
AYP	PE	-13.154722222222222	-74.20444444444445
AYQ	AU	-25.18611111111111	130.97555555555556
AYT	TR	36.89861111111111	30.800555555555555
AZD	IR	31.90111111111111	54.28194444444444
AZO	US	42.235	-85.55194444444444
AZR	DZ	27.8375	-0.18638888888888888
AZS	DO	19.26722222222222	-69.74222222222222
BAG	PH	16.375	120.61972222222222
BAH	BH	26.270833333333332	50.63361111111111
BAK	AZ	40.36666666666667	49.88333333333333
BAL	TR	37.928888888888885	41.11666666666667
BAQ	CO	10.889722222222222	-74.78083333333333
BAR	CN	19.139166666666664	110.45361111111112
BAS	SB	-6.9911111111111115	155.88583333333332
BAV	CN	40.56055555555555	109.99638888888889
BAX	RU	53.363055555555555	83.54722222222222
BAY	RO	47.65833333333333	23.46833333333333
BAZ	BR	-0.9811111111111112	-62.91833333333333
BBA	CL	-45.91611111111111	-71.68944444444445
BBG	KI	3.086388888888889	172.81083333333333
BBI	IN	20.244444444444447	85.81777777777778
BBK	BW	-17.83277777777778	25.162499999999998
BBL	AU	-27.40361111111111	141.81166666666667
BBN	MY	3.7347222222222225	115.47833333333334
BBS	GB	51.323888888888895	-0.8475
BCA	CU	20.36527777777778	-74.50611111111111
BCD	PH	10.776666666666667	123.01916666666666
BCI	AU	-23.560833333333335	145.30416666666667
BCM	RO	46.52194444444444	26.910277777777775
BCN	ES	41.416666666666664	2.1666666666666665
BCO	ET	5.783888888888889	36.5625
BCT	US	26.378888888888888	-80.10749999999999
BCU	NG	10.2925	9.817222222222222
BDA	BM	32.36416666666667	-64.67861111111111
BDB	AU	-24.9025	152.32083333333333
BDD	AU	-10.15	142.17416666666665
BDH	IR	26.531388888888888	54.8275
BDJ	ID	-3.4422222222222225	114.7625
BDO	ID	-6.900555555555556	107.57638888888889
BDP	NP	26.570555555555554	88.08027777777778
BDQ	IN	22.33611111111111	73.22638888888889
BDR	US	41.16361111111111	-73.1261111111111
BDS	IT	40.660555555555554	17.948055555555555
BDT	CD	4.254722222222222	20.971944444444443
BDU	NO	69.05583333333333	18.540277777777778
BEB	GB	57.4775	-7.366388888888888
BEF	NI	11.990833333333333	-83.77416666666666
BEG	RS	44.78722222222222	20.4575
BEJ	ID	2.1552777777777776	117.43277777777779
BEK	IN	28.422222222222224	79.45083333333334
BEL	BR	-1.3791666666666667	-48.47638888888889
BEM	MA	32.4	-6.317222222222222
BEN	LY	32.09666666666667	20.269444444444442
BER	DE	52.53333333333333	13.416666666666666
BES	FR	48.447222222222216	-4.421666666666667
BET	US	60.78333333333333	-161.83333333333334
BEU	AU	-24.34611111111111	139.46027777777778
BEW	MZ	-19.79638888888889	34.9075
BEY	LB	33.82083333333334	35.48833333333334
BEZ	KI	-1.3544444444444446	176.00666666666666
BFD	US	41.80305555555555	-78.64
BFF	US	41.87416666666667	-103.59555555555555
BFJ	CN	27.26722222222222	105.4713888888889
BFL	US	35.433611111111105	-119.05666666666666
BFN	ZA	-29.092777777777776	26.302500000000002
BFS	GB	54.583333333333336	-5.916666666666667
BFV	TH	15.226666666666667	103.25111111111111
BFX	CM	5.5375	10.354166666666666
BGA	CO	7.126388888888888	-73.18472222222222
BGC	PT	41.85805555555556	-6.707222222222223
BGF	CF	4.397777777777778	18.52
BGG	TR	38.86138888888889	40.5925
BGI	BB	13.074722222222222	-59.4925
BGM	US	42.20861111111111	-75.97972222222222
BGN	RU	68.55694444444444	146.23111111111112
BGO	NO	60.29333333333333	5.218055555555556
BGR	US	44.8075	-68.82805555555555
BGS	RU	58.37861111111111	97.46722222222222
BGW	IQ	33.2625	44.23444444444444
BGX	BR	-31.383333333333333	-54.11666666666667
BHB	US	44.446666666666665	-68.36138888888888
BHE	NZ	-41.51777777777777	173.86916666666667
BHH	SA	19.984444444444446	42.62083333333334
BHI	AR	-38.727222222222224	-62.15333333333333
BHJ	IN	23.28777777777778	69.67027777777778
BHK	UZ	39.76638888888889	64.48
BHM	US	33.56305555555555	-86.75361111111111
BHO	IN	23.2875	77.33749999999999
BHQ	AU	-32.00138888888889	141.47166666666666
BHR	NP	27.678055555555556	84.42805555555556
BHU	IN	21.752222222222223	72.18527777777778
BHX	GB	52.45	-1.75
BHY	CN	21.539444444444445	109.29388888888889
BHZ	BR	-19.916666666666668	-43.93333333333333
BIA	FR	42.55	9.48472222222222
BIB	SO	3.1025	43.62777777777778
BID	US	41.168055555555554	-71.57888888888888
BIH	US	37.37361111111111	-118.36527777777778
BIK	ID	-1.19	136.10805555555555
BIL	US	45.80777777777777	-108.54277777777777
BIM	BS	25.7	-79.26472222222222
BIO	ES	43.301111111111105	-2.9105555555555553
BIQ	FR	43.468333333333334	-1.531111111111111
BIR	NP	26.482499999999998	87.26666666666667
BIS	US	46.77222222222222	-100.74583333333334
BIU	IS	65.6413888888889	-23.546111111111113
BJA	DZ	36.71194444444445	5.069999999999999
BJB	IR	37.490833333333335	57.30916666666666
BJF	NO	70.60027777777778	29.6925
BJI	US	47.50972222222222	-94.93305555555555
BJL	GM	13.338055555555556	-16.65222222222222
BJM	BI	-3.3238888888888884	29.31861111111111
BJR	ET	11.608055555555556	37.32166666666667
BJS	CN	39.919444444444444	116.43333333333334
BJU	NP	29.35	81.3
BJV	TR	37.13472222222222	27.66722222222222
BJW	ID	-8.707777777777777	121.05777777777777
BJX	MX	20.993333333333336	-101.48083333333334
BJZ	ES	38.89138888888889	-6.8213888888888885
BKA	RU	61.677499999999995	96.3536111111111
BKB	IN	28.016666666666666	73.3
BKC	US	65.98166666666667	-161.14916666666667
BKG	US	36.531666666666666	-93.19972222222222
BKI	MY	5.937222222222222	116.05305555555556
BKK	TH	13.733333333333333	100.5
BKM	MY	3.9738888888888892	115.61722222222221
BKN	TM	39.48027777777778	54.365833333333335
BKO	ML	12.53361111111111	-7.95
BKQ	AU	-24.4325	145.42805555555555
BKS	ID	-3.863611111111111	102.33916666666666
BKW	US	37.78722222222222	-81.12416666666665
BKY	CD	-2.3088888888888888	28.80888888888889
BKZ	TZ	-1.3325	31.821944444444444
BLA	VE	10.107222222222221	-64.68916666666667
BLB	PA	8.914444444444445	-79.59972222222221
BLI	US	48.79277777777778	-122.5375
BLJ	DZ	35.75222222222222	6.3086111111111105
BLL	DK	55.74027777777778	9.151666666666667
BLQ	IT	44.53111111111111	11.297222222222222
BLR	IN	13.19888888888889	77.70555555555556
BLV	US	38.54111111111111	-89.84888888888888
BLZ	MW	-15.679166666666665	34.973888888888894
BMB	CD	2.1838888888888888	22.479166666666664
BME	AU	-17.948888888888888	122.22833333333334
BMG	US	39.1425	-86.61527777777778
BMI	US	40.477222222222224	-88.91583333333334
BMK	DE	53.595555555555556	6.7091666666666665
BMO	MM	24.266666666666666	97.25
BMU	ID	-8.539722222222222	118.68722222222223
BMV	VN	12.668333333333333	108.12027777777777
BMW	DZ	21.3775	0.923611111111111
BMY	NC	-19.720555555555553	163.66111111111113
BNA	US	36.12444444444444	-86.67833333333334
BNC	CD	0.5777777777777777	29.468888888888888
BND	IR	27.21861111111111	56.37777777777778
BNE	AU	-27.384166666666665	153.1175
BNI	NG	6.316944444444444	5.599444444444444
BNK	AU	-28.833888888888886	153.5625
BNN	NO	65.46111111111111	12.2175
BNS	VE	8.619444444444445	-70.22083333333333
BNX	BA	44.94138888888889	17.297500000000003
BNY	SB	-11.302222222222223	159.79888888888888
BOB	PF	-16.444444444444446	-151.7513888888889
BOC	PA	9.340833333333334	-82.25083333333333
BOD	FR	44.833333333333336	-0.5666666666666667
BOG	CO	4.701666666666667	-74.14694444444446
BOH	GB	50.78	-1.8425000000000002
BOI	US	43.56444444444444	-116.22277777777778
BOJ	BG	42.569722222222225	27.51527777777778
BOM	IN	19.08861111111111	72.86805555555554
BON	BQ	12.131111111111112	-68.26861111111111
BOO	NO	67.26916666666666	14.365277777777777
BOS	US	42.36666666666667	-71.0
BOY	BF	11.16	-4.3308333333333335
BPA	PH	11.675833333333333	125.47833333333334
BPE	CN	39.66638888888889	119.06
BPG	BR	-15.862499999999999	-52.390277777777776
BPL	CN	44.895833333333336	82.3
BPN	ID	-1.2683333333333333	116.89444444444445
BPS	BR	-16.43861111111111	-39.08083333333334
BPT	US	30.083333333333332	-94.1
BPX	CN	30.551111111111112	97.11055555555555
BQB	AU	-33.6875	115.40222222222222
BQG	RU	52.37833333333333	140.44833333333332
BQJ	RU	67.64777777777779	134.69333333333333
BQL	AU	-22.913055555555555	139.90083333333334
BQN	PR	18.495	-67.12944444444443
BQS	RU	50.42527777777777	127.41250000000001
BQU	VC	12.983333333333333	-61.25
BQW	AU	-20.133333333333333	127.8
BRA	BR	-12.079166666666666	-45.00944444444445
BRB	BR	-2.8333333333333335	-42.833333333333336
BRC	AR	-41.151111111111106	-71.15777777777778
BRD	US	46.40333333333333	-94.12972222222221
BRE	DE	53.0475	8.786666666666667
BRI	IT	41.13805555555555	16.765
BRK	AU	-30.040555555555557	145.94666666666666
BRL	US	40.779444444444444	-91.12249999999999
BRM	VE	10.042777777777777	-69.3586111111111
BRN	CH	46.916666666666664	7.5
BRO	US	25.90694444444444	-97.42583333333334
BRQ	CZ	49.15138888888889	16.694444444444446
BRR	GB	57.025555555555556	-7.449722222222222
BRS	GB	51.3825	-2.718888888888889
BRU	BE	50.90277777777778	4.483333333333333
BRW	US	71.28555555555555	-156.76611111111112
BSA	SO	11.275555555555556	49.157777777777774
BSB	BR	-15.871111111111112	-47.91861111111111
BSC	CO	6.203055555555555	-77.39527777777778
BSD	CN	25.053611111111113	99.16805555555555
BSG	GQ	1.9055555555555554	9.805555555555557
BSK	DZ	34.79333333333333	5.738333333333333
BSO	PH	20.45138888888889	121.98
BSR	IQ	30.549166666666668	47.66222222222222
BTC	LK	7.704722222222222	81.67666666666668
BTH	ID	1.1211111111111112	104.11888888888888
BTI	US	70.13388888888889	-143.58194444444445
BTJ	ID	5.523611111111111	95.42027777777778
BTK	RU	56.370555555555555	101.69833333333334
BTM	US	45.95472222222222	-112.4975
BTR	US	30.533055555555556	-91.14972222222222
BTS	SK	48.17027777777778	17.212777777777777
BTT	US	66.91388888888889	-151.52916666666667
BTU	MY	3.1241666666666665	113.01972222222223
BTV	US	44.471944444444446	-73.15333333333334
BTW	ID	-3.45	116.0
BUA	PG	-5.4222222222222225	154.67277777777778
BUC	AU	-17.748611111111114	139.53444444444443
BUD	HU	47.43694444444444	19.255555555555556
BUE	AR	-34.57222222222222	-58.37027777777778
BUF	US	42.940555555555555	-78.73222222222222
BUH	RO	44.50277777777778	26.083333333333332
BUL	PG	-7.216388888888889	146.65
BUN	CO	3.819722222222222	-76.98972222222223
BUP	IN	30.27027777777778	74.75583333333333
BUQ	ZW	-20.0175	28.61777777777778
BUR	US	34.20055555555556	-118.3586111111111
BUS	GE	41.61027777777778	41.599722222222226
BUT	BT	27.563055555555557	90.74666666666667
BUU	ID	-1.5416666666666665	102.18166666666667
BUW	ID	-5.4875	122.56888888888888
BUX	CD	1.5658333333333334	30.22083333333333
BUZ	IR	28.949444444444445	50.83027777777778
BVB	BR	2.846388888888889	-60.69
BVC	CV	16.136666666666667	-22.88888888888889
BVE	FR	45.151666666666664	1.4719444444444445
BVG	NO	70.8711111111111	29.028888888888886
BVH	BR	-12.694444444444445	-60.098333333333336
BVI	AU	-25.891944444444444	139.3452777777778
BVS	BR	-1.6666666666666665	-50.46666666666667
BWA	NP	27.50583333333333	83.41638888888889
BWB	AU	-20.8	115.38333333333334
BWE	DE	52.31916666666667	10.556111111111111
BWG	US	36.9675	-86.41916666666667
BWI	US	39.166666666666664	-76.66666666666667
BWK	HR	43.28583333333333	16.679722222222225
BWN	BN	4.944166666666667	114.92833333333334
BWT	AU	-40.99722222222222	145.72666666666666
BWX	ID	-8.31027777777778	114.33999999999999
BXB	ID	-2.5349999999999997	133.4388888888889
BXG	AU	-36.734722222222224	144.3186111111111
BXR	IR	29.084166666666665	58.44972222222222
BXU	PH	8.950555555555555	125.48138888888889
BYC	BO	-21.961111111111112	-63.651944444444446
BYH	US	35.93333333333333	-89.91666666666667
BYK	CI	7.736944444444444	-5.071111111111111
BYM	CU	20.39638888888889	-76.62138888888889
BYO	BR	-21.247222222222224	-56.4525
BYP	AU	-22.6725	119.16583333333334
BYR	DK	57.27722222222222	11.0
BYW	US	48.583333333333336	-122.83333333333333
BZE	BZ	17.533333333333335	-88.3
BZG	PL	53.09666666666667	17.977777777777778
BZL	BD	22.801111111111112	90.30111111111111
BZN	US	45.777499999999996	-111.15305555555557
BZO	IT	46.46083333333333	11.326666666666666
BZR	FR	43.32333333333334	3.3533333333333335
BZV	CG	-4.251666666666667	15.253055555555555
BZX	CN	31.738055555555558	106.64416666666668
CAB	AO	-5.597222222222222	12.188055555555556
CAC	BR	-25.00027777777778	-53.50083333333333
CAE	US	33.95	-81.11666666666666
CAF	BR	-4.870833333333334	-66.89722222222223
CAG	IT	39.25138888888889	9.057777777777778
CAH	VN	9.177777777777777	105.17750000000001
CAI	EG	30.059722222222224	31.250833333333333
CAK	US	41.06666666666667	-81.51666666666667
CAL	GB	55.43722222222222	-5.686388888888889
CAN	CN	23.3925	113.29888888888888
CAP	HT	19.733055555555556	-72.19472222222223
CAT	PT	38.721944444444446	-9.35361111111111
CAU	BR	-8.283333333333333	-35.96666666666667
CAW	BR	-21.698333333333334	-41.30166666666666
CAY	GF	4.819722222222222	-52.36055555555556
CAZ	AU	-31.5375	145.79444444444445
CBB	BO	-17.421111111111113	-66.17722222222223
CBG	GB	52.205000000000005	0.175
CBH	DZ	31.64611111111111	-2.278888888888889
CBI	AU	-40.390277777777776	148.01527777777778
CBL	VE	8.121944444444445	-63.53722222222222
CBO	PH	7.165277777777778	124.20972222222223
CBQ	NG	4.976111111111111	8.347222222222223
CBR	AU	-35.30694444444444	149.195
CBT	AO	-12.481388888888889	13.486944444444443
CCC	CU	22.461111111111112	-78.32833333333333
CCF	FR	43.215833333333336	2.308611111111111
CCJ	IN	11.136944444444444	75.95527777777778
CCK	CC	-12.1875	96.83138888888888
CCP	CL	-36.772777777777776	-73.06305555555555
CCR	US	37.99194444444444	-122.05583333333333
CCS	VE	10.603055555555555	-66.99055555555556
CCU	IN	22.654722222222222	88.44666666666667
CCV	VU	-16.264444444444443	167.92416666666665
CCZ	BS	25.41722222222222	-77.88083333333333
CDB	US	55.20611111111111	-162.72555555555556
CDC	US	37.700833333333335	-113.09888888888888
CDE	CN	41.12138888888889	118.0761111111111
CDP	IN	14.512777777777778	78.7725
CDR	US	42.835	-103.09861111111111
CDT	ES	40.21416666666667	0.07333333333333333
CDV	US	60.483333333333334	-145.48333333333332
CDW	US	40.875277777777775	-74.28083333333333
CEB	PH	10.307500000000001	123.97944444444444
CEC	US	41.780277777777776	-124.23666666666666
CED	AU	-32.13055555555555	133.7097222222222
CEE	RU	59.278055555555554	38.0225
CEI	TH	19.952222222222222	99.88305555555554
CEK	RU	55.30583333333333	61.50333333333333
CEL	BR	-29.370555555555555	-50.83222222222223
CEM	US	65.5736111111111	-144.77916666666667
CEN	MX	27.392777777777777	-109.83305555555555
CEQ	FR	43.55	7.016666666666667
CEZ	US	37.30305555555555	-108.6286111111111
CFB	BR	-22.925	-42.078611111111115
CFE	FR	45.78583333333333	3.1625
CFG	CU	22.15	-80.41416666666667
CFK	DZ	36.21277777777778	1.3316666666666666
CFN	IE	55.04416666666666	-8.341111111111111
CFR	FR	49.17333333333333	-0.45
CFS	AU	-30.320555555555554	153.11638888888888
CFU	GR	39.60194444444445	19.911666666666665
CGA	US	55.483333333333334	-133.15
CGB	BR	-15.653055555555556	-56.11666666666667
CGD	CN	28.91861111111111	111.64083333333333
CGI	US	37.22527777777778	-89.57083333333333
CGM	PH	9.25361111111111	124.70694444444445
CGN	DE	50.86666666666667	7.15
CGO	CN	34.519444444444446	113.8411111111111
CGP	BD	22.249722222222225	91.81333333333333
CGQ	CN	43.99611111111111	125.68527777777778
CGR	BR	-20.46861111111111	-54.6725
CGY	PH	8.612499999999999	124.45694444444445
CHA	US	35.03333333333333	-85.2
CHC	NZ	-43.489444444444445	172.53222222222223
CHG	CN	41.54138888888889	120.43388888888889
CHH	PE	-6.201944444444445	-77.85638888888889
CHI	US	41.87444444444444	-87.63944444444445
CHO	US	38.13861111111111	-78.45277777777778
CHQ	GR	35.531666666666666	24.149722222222223
CHS	US	32.89861111111111	-80.04055555555556
CHT	NZ	-43.81194444444444	-176.46499999999997
CHU	US	61.584722222222226	-159.23777777777775
CHX	PA	9.458888888888888	-82.51527777777778
CHY	SB	-6.711944444444445	156.3961111111111
CID	US	41.88472222222222	-91.71083333333334
CIF	CN	42.16	118.84083333333332
CIH	CN	36.2475	113.12583333333333
CIJ	BO	-11.040555555555555	-68.78305555555555
CIK	US	66.64416666666668	-143.74277777777777
CIT	KZ	42.36416666666667	69.47888888888889
CIW	VC	12.699166666666667	-61.3425
CIX	PE	-6.7875	-79.82805555555555
CIY	IT	36.99472222222222	14.606944444444444
CIZ	BR	-4.134166666666667	-63.1325
CJA	PE	-7.139166666666667	-78.48944444444444
CJB	IN	11.030000000000001	77.04333333333334
CJC	CL	-22.498055555555556	-68.90805555555556
CJF	AU	-22.965	118.8125
CJJ	KR	36.71666666666667	127.49916666666667
CJM	TH	10.711388888888887	99.36166666666666
CJS	MX	31.63611111111111	-106.42861111111111
CJU	KR	33.50472222222222	126.49305555555556
CJZ	BR	-6.882777777777778	-38.61833333333333
CKB	US	39.29666666666667	-80.22805555555556
CKD	US	61.86666666666667	-158.13333333333333
CKG	CN	29.71944444444444	106.64194444444445
CKH	RU	70.62444444444444	147.89666666666665
CKS	BR	-6.1177777777777775	-50.00361111111111
CKX	US	64.06638888888888	-141.95138888888889
CKY	GN	9.576944444444445	-13.611944444444443
CKZ	TR	40.13777777777778	26.42666666666667
CLE	US	41.416666666666664	-81.85
CLJ	RO	46.78527777777778	23.68611111111111
CLL	US	30.58861111111111	-96.36388888888888
CLO	CO	3.543333333333333	-76.38166666666666
CLP	US	58.83361111111111	-158.52944444444447
CLQ	MX	19.276944444444442	-103.5775
CLS	US	46.68333333333333	-122.98333333333333
CLT	US	35.21388888888889	-80.94305555555556
CLV	BR	-17.72472222222222	-48.61
CLY	FR	42.52027777777778	8.793055555555556
CMA	AU	-28.029999999999998	145.62222222222223
CMB	LK	6.933333333333334	79.85
CME	MX	18.653333333333332	-91.80111111111111
CMF	FR	45.63916666666667	5.880000000000001
CMG	BR	-19.011944444444445	-57.67305555555555
CMH	US	40.0	-82.88333333333334
CMI	US	40.03916666666667	-88.27805555555555
CMJ	TW	23.25	119.41666666666667
CMN	MA	33.3675	-7.59
CMW	CU	21.42027777777778	-77.8475
CMX	US	47.16833333333333	-88.48916666666666
CNC	AU	-10.050277777777778	143.07166666666666
CND	RO	44.36222222222222	28.488333333333333
CNJ	AU	-20.66861111111111	140.50444444444443
CNM	US	32.337500000000006	-104.26333333333334
CNN	IN	11.915833333333333	75.54583333333333
CNP	GL	70.74333333333334	-22.650555555555552
CNQ	AR	-27.445555555555554	-58.761944444444445
CNS	AU	-16.878055555555555	145.74888888888887
CNX	TH	18.77138888888889	98.96277777777777
CNY	US	38.76083333333333	-109.7475
COD	US	44.51777777777777	-109.0261111111111
COH	IN	26.333333333333332	89.46666666666667
COK	IN	10.151944444444444	76.40194444444445
COL	GB	56.60194444444445	-6.617777777777778
COO	BJ	6.357222222222222	2.3844444444444446
COQ	MN	48.135555555555555	114.6463888888889
COR	AR	-31.310000000000002	-64.20833333333334
COS	US	38.81666666666667	-104.71666666666667
COU	US	38.81805555555556	-92.21972222222223
CPC	AR	-40.07527777777778	-71.13722222222223
CPD	AU	-29.040277777777778	134.72
CPE	MX	19.816666666666666	-90.50027777777778
CPH	DK	55.61666666666667	12.65
CPO	CL	-27.261666666666667	-70.77916666666667
CPR	US	42.908055555555556	-106.46444444444445
CPT	ZA	-33.96472222222223	18.601666666666667
CPV	BR	-7.27	-35.896388888888886
CPX	PR	18.3125	-65.30305555555556
CQD	IR	32.29833333333333	50.84055555555556
CQW	CN	29.464166666666667	107.69333333333334
CRA	RO	44.31805555555556	23.88861111111111
CRD	AR	-45.78527777777778	-67.46555555555555
CRI	BS	22.745555555555555	-74.18222222222222
CRK	PH	15.186111111111112	120.56027777777777
CRM	PH	12.5025	124.63583333333334
CRP	US	27.766666666666666	-97.5
CRU	GD	12.476666666666667	-61.471944444444446
CRV	IT	38.99916666666667	17.079722222222223
CRW	US	38.37305555555555	-81.59305555555555
CRZ	TM	39.083333333333336	63.61194444444445
CSA	GB	56.05777777777777	-6.243055555555555
CSG	US	32.516666666666666	-84.95
CSK	SN	12.39472222222222	-16.747500000000002
CSM	US	35.516666666666666	-98.98333333333333
CSU	BR	-29.683333333333334	-52.416666666666664
CSX	CN	28.19361111111111	113.21777777777778
CSY	RU	56.09027777777778	47.34722222222222
CTA	IT	37.46666666666667	15.06388888888889
CTC	AR	-28.593055555555555	-65.75111111111111
CTD	PA	7.9880555555555555	-80.41000000000001
CTG	CO	10.4425	-75.51305555555555
CTL	AU	-26.41333333333333	146.2625
CTM	MX	18.504722222222224	-88.32694444444444
CTN	AU	-15.443611111111112	145.18277777777777
CTU	CN	30.578611111111112	103.94722222222222
CUC	CO	7.9275	-72.51166666666667
CUE	EC	-2.8894444444444445	-78.98444444444445
CUF	IT	44.5475	7.623055555555556
CUK	BZ	17.735277777777778	-88.0325
CUL	MX	24.764444444444443	-107.47472222222223
CUM	VE	10.450277777777776	-64.13055555555555
CUN	MX	21.03666666666667	-86.87722222222222
CUQ	AU	-13.762777777777778	143.11694444444444
CUR	CW	12.18888888888889	-68.95972222222223
CUU	MX	28.702777777777776	-105.96444444444445
CUZ	PE	-13.535833333333333	-71.9388888888889
CVG	US	39.15	-84.45
CVM	MX	23.703333333333333	-98.9563888888889
CVN	US	34.416666666666664	-103.08333333333333
CVQ	AU	-24.884722222222223	113.66638888888889
CVT	GB	52.36972222222222	-1.4797222222222224
CVU	PT	39.671388888888885	-31.113611111111112
CWB	BR	-25.4	-49.25
CWJ	CN	23.27611111111111	99.37333333333332
CWL	GB	51.39666666666667	-3.3433333333333333
CXB	BD	21.452222222222222	91.96388888888889
CXI	KI	1.986388888888889	-157.35416666666666
CXJ	BR	-29.196944444444444	-51.1875
CXY	BS	25.555	-79.27555555555556
CYA	HT	18.266666666666666	-73.78333333333333
CYB	KY	19.686944444444446	-79.88277777777778
CYC	BZ	17.683611111111112	-88.045
CYF	US	60.15972222222222	-164.27472222222224
CYI	TW	23.46333333333333	120.39055555555557
CYO	CU	21.616388888888892	-81.5461111111111
CYP	PH	12.072777777777777	124.545
CYS	US	41.15	-104.8
CYX	RU	68.74166666666667	161.3375
CYZ	PH	16.92888888888889	121.75527777777778
CZH	BZ	18.3825	-88.41083333333334
CZL	DZ	36.27611111111111	6.620277777777778
CZM	MX	20.521666666666665	-86.93694444444445
CZN	US	62.07361111111111	-142.0511111111111
CZS	BR	-7.6	-72.76944444444445
CZU	CO	9.332777777777778	-75.28555555555555
CZX	CN	31.919444444444444	119.77833333333334
DAB	US	29.18	-81.05805555555555
DAC	BD	23.843333333333334	90.39777777777779
DAD	VN	16.04388888888889	108.19944444444445
DAM	SY	33.410555555555554	36.51416666666667
DAR	TZ	-6.878055555555556	39.2025
DAT	CN	39.71888888888889	113.14611111111111
DAU	PG	-9.086666666666668	143.20805555555555
DAV	PA	8.39111111111111	-82.435
DAY	US	39.75	-84.18333333333334
DBC	CN	45.505	123.01888888888888
DBO	AU	-32.21888888888889	148.57555555555555
DBQ	US	42.401944444444446	-90.70944444444444
DBR	IN	26.19361111111111	85.91694444444445
DBV	HR	42.561388888888885	18.26833333333333
DCM	FR	43.555	2.2905555555555552
DCY	CN	29.316666666666666	100.06
DDC	US	37.76027777777778	-99.96416666666667
DDD	MV	2.665277777777778	72.89027777777778
DDG	CN	40.025555555555556	124.28694444444444
DDR	CN	28.604722222222225	86.79805555555555
DEB	HU	47.48888888888889	21.61527777777778
DEC	US	39.83444444444444	-88.86555555555555
DED	IN	30.189722222222223	78.18027777777779
DEE	RU	43.96138888888889	145.68555555555557
DEF	IR	32.44277777777778	48.388333333333335
DEL	IN	28.56638888888889	77.10305555555556
DEN	US	39.86388888888889	-104.66666666666667
DEX	ID	-4.855277777777777	139.48388888888888
DFW	US	32.766666666666666	-96.78333333333333
DGA	BZ	16.982499999999998	-88.23111111111112
DGE	AU	-32.565	149.60944444444445
DGH	IN	24.446944444444444	86.70611111111111
DGM	LK	7.108333333333333	79.86999999999999
DGO	MX	24.124166666666667	-104.52805555555555
DGT	PH	9.334444444444445	123.3
DHG	RU	44.558055555555555	135.4908333333333
DHI	NP	28.754722222222224	80.5825
DHM	IN	32.165277777777774	76.26055555555556
DHN	US	31.32138888888889	-85.44972222222222
DIB	IN	27.483333333333334	95.01666666666667
DIE	MG	-12.349444444444446	49.291666666666664
DIG	CN	27.791666666666668	99.67805555555556
DIK	US	46.8	-102.8
DIL	TL	-8.546666666666667	125.52472222222222
DIN	VN	21.4	103.00444444444445
DIR	ET	9.624722222222223	41.85416666666667
DIU	IN	20.71388888888889	70.92166666666667
DIY	TR	37.89388888888889	40.20111111111111
DJB	ID	-1.6380555555555556	103.64444444444445
DJE	TN	33.875	10.775555555555556
DJG	DZ	24.29277777777778	9.452499999999999
DJJ	ID	-2.576944444444444	140.51638888888888
DJN	US	64.05055555555555	-145.72555555555556
DKA	NG	13.005277777777778	7.658611111111111
DKR	SN	14.692777777777778	-17.446666666666665
DKS	RU	73.51777777777778	80.37694444444443
DLA	CM	4.006111111111111	9.719444444444445
DLC	CN	38.96555555555556	121.53861111111111
DLE	FR	47.04277777777778	5.4350000000000005
DLG	US	59.04472222222222	-158.50555555555556
DLH	US	46.842222222222226	-92.19361111111111
DLI	VN	11.75	108.36666666666666
DLM	TR	36.713055555555556	28.7925
DLU	CN	25.650277777777777	100.31944444444444
DLY	VU	-18.770555555555553	169.0038888888889
DLZ	MN	43.608333333333334	104.37194444444444
DMB	KZ	42.853611111111114	71.30361111111111
DMD	AU	-17.940277777777776	138.82166666666666
DMM	SA	26.47111111111111	49.797777777777775
DMU	IN	25.8825	93.77444444444444
DND	GB	56.452222222222225	-3.0255555555555556
DNH	CN	40.092222222222226	94.68166666666667
DNN	US	34.71666666666667	-84.86666666666666
DNP	NP	28.116666666666667	82.31666666666666
DNR	FR	48.58777777777778	-2.08
DNV	US	40.2	-87.58333333333333
DNZ	TR	37.785555555555554	29.70138888888889
DOB	ID	-5.772777777777778	134.2111111111111
DOD	TZ	-6.170555555555556	35.7525
DOH	QA	25.274444444444445	51.608333333333334
DOL	FR	49.36333333333334	0.16
DOM	DM	15.533333333333333	-61.3
DOY	CN	37.507777777777775	118.78944444444444
DPL	PH	8.604166666666666	123.3425
DPO	AU	-41.16972222222222	146.43027777777777
DPS	ID	-8.748055555555554	115.16722222222222
DPT	RU	69.39250000000001	139.89027777777778
DQA	CN	46.75	125.13916666666667
DQM	OM	19.5	57.64277777777778
DRB	AU	-17.371944444444445	123.66250000000001
DRG	US	66.06944444444444	-162.76638888888888
DRK	CR	8.719166666666666	-83.64194444444445
DRO	US	37.15	-107.75
DRP	PH	13.111666666666666	123.68111111111112
DRS	DE	51.13444444444444	13.768055555555556
DRT	US	29.366666666666667	-100.91666666666667
DRV	MV	5.156944444444445	73.13
DRW	AU	-12.383333333333333	130.73333333333332
DSA	GB	53.47527777777778	-1.0038888888888888
DSE	ET	11.083333333333334	39.71666666666667
DSM	US	41.534166666666664	-93.65777777777778
DSN	CN	39.492222222222225	109.86305555555555
DTB	ID	2.2597222222222224	98.9875
DTM	DE	51.51833333333333	7.612222222222222
DTT	US	42.333333333333336	-83.05
DTU	CN	48.50611111111111	126.19777777777779
DUB	IE	53.421388888888885	-6.27
DUD	NZ	-45.92916666666667	170.1975
DUE	AO	-7.400555555555556	20.81888888888889
DUG	US	31.466666666666665	-109.6
DUJ	US	41.17833333333333	-78.89861111111112
DUR	ZA	-29.966666666666665	30.95
DUS	DE	51.21666666666667	6.7666666666666675
DUT	US	53.89888888888889	-166.54472222222222
DVL	US	48.11555555555556	-98.90805555555556
DVO	PH	7.125277777777777	125.64555555555556
DWD	SA	24.45	44.12111111111111
DWO	LK	6.905555555555556	79.90916666666668
DXB	AE	25.252777777777776	55.36388888888889
DXJ	CN	28.495	109.51944444444445
DYG	CN	29.104444444444447	110.44305555555556
DYR	RU	64.735	177.74138888888888
DYU	TJ	38.54333333333333	68.825
DZA	YT	-12.806666666666667	45.28055555555555
DZH	CN	31.04888888888889	107.43611111111112
DZN	KZ	47.71	67.74027777777778
EAA	US	64.77833333333334	-141.16055555555556
EAE	VU	-17.088055555555556	168.34166666666667
EAL	MH	9.396944444444443	167.47083333333333
EAM	SA	17.61138888888889	44.41916666666666
EAP	CH	47.60277777777778	7.533333333333333
EAR	US	40.72666666666667	-99.00916666666667
EAS	ES	43.35638888888889	-1.7905555555555555
EAT	US	47.39888888888889	-120.20722222222223
EAU	US	44.865833333333335	-91.48416666666667
EBB	UG	0.0425	32.44361111111111
EBH	DZ	33.72083333333334	1.0913888888888887
EBJ	DK	55.5	8.483333333333333
EBL	IQ	36.23777777777778	43.963055555555556
EBO	MH	4.598055555555555	168.75166666666667
EBU	FR	45.534166666666664	4.2972222222222225
ECN	CY	35.15972222222222	33.48833333333334
ECP	US	30.175	-85.66861111111112
EDA	US	55.95	-133.66666666666666
EDI	GB	55.95	-3.3725
EDL	KE	0.40472222222222226	35.23888888888889
EDN	RU	47.17666666666666	138.66111111111113
EDO	TR	39.55472222222222	27.01388888888889
EDR	AU	-14.896944444444443	141.60972222222222
EEA	BR	-27.633888888888887	-50.35666666666667
EEK	US	60.215	-162.01194444444445
EFL	GR	38.12	20.500555555555554
EGC	FR	44.824444444444445	0.5205555555555557
EGE	US	39.63333333333333	-106.91666666666667
EGM	SB	-8.57861111111111	157.87555555555556
EGO	RU	50.64388888888889	36.59
EGS	IS	65.28333333333333	-14.401388888888889
EGX	US	58.18555555555555	-157.37555555555556
EHU	CN	30.341388888888886	115.02944444444444
EIN	NL	51.45	5.383333333333334
EJA	CO	7.024444444444445	-73.80666666666666
EJT	MH	6.040555555555556	171.98305555555555
EKO	US	40.8275	-115.78138888888888
EKS	RU	49.19222222222222	142.0811111111111
ELC	AU	-12.019444444444446	135.57055555555556
ELD	US	33.221111111111114	-92.81333333333333
ELF	SD	13.615	25.32472222222222
ELG	DZ	30.581666666666667	2.8616666666666672
ELH	BS	25.474999999999998	-76.68361111111112
ELI	US	64.61555555555555	-162.27027777777778
ELM	US	42.16	-76.89166666666668
ELP	US	31.8	-106.38333333333334
ELQ	SA	26.302777777777777	43.77388888888889
ELS	ZA	-33.035555555555554	27.825833333333332
ELU	DZ	33.51277777777778	6.782777777777778
ELV	US	58.195277777777775	-136.3475
EMD	AU	-23.57	148.17777777777778
EME	DE	53.39111111111111	7.225555555555555
EMK	US	62.78611111111111	-164.4908333333333
EMN	MR	16.621944444444445	-7.316666666666666
ENA	US	60.573055555555555	-151.24499999999998
ENE	ID	-8.849166666666667	121.66055555555556
ENH	CN	30.32111111111111	109.48527777777778
ENI	PH	11.202499999999999	119.41638888888889
ENS	NL	52.275	6.886388888888888
ENU	NG	6.474166666666667	7.561944444444444
ENY	CN	36.63666666666666	109.55333333333333
EPR	AU	-33.68222222222222	121.82249999999999
EQS	AR	-42.903888888888886	-71.13555555555556
ERC	TR	39.71027777777778	39.526944444444446
ERF	DE	50.97972222222222	10.958055555555555
ERG	RU	61.275	108.03
ERH	MA	31.946944444444444	-4.398888888888889
ERI	US	42.081944444444446	-80.17611111111111
ERL	CN	43.42333333333333	112.0911111111111
ERN	BR	-6.639722222222222	-69.88
ERZ	TR	39.95638888888889	41.17027777777778
ESC	US	45.720555555555556	-87.09583333333333
ESD	US	48.7075	-122.91083333333334
ESR	CL	-26.308333333333334	-69.75166666666667
ESU	MA	31.3975	-9.681666666666667
ETH	IL	29.558333333333334	34.95888888888889
ETL	RU	46.54194444444444	138.32166666666666
ETM	IL	29.72722222222222	34.998333333333335
ETR	EC	-3.435277777777778	-79.97805555555556
ETZ	FR	48.96666666666667	6.233333333333333
EUA	TO	-21.377222222222223	-174.95749999999998
EUG	US	44.124722222222225	-123.21194444444444
EUN	MA	27.151666666666664	-13.219166666666666
EUQ	PH	10.767777777777779	121.9325
EUX	BQ	17.49638888888889	-62.97944444444445
EVE	NO	68.49138888888889	16.678055555555556
EVG	SE	62.047777777777775	14.423055555555555
EVN	AM	40.14722222222222	44.395833333333336
EVV	US	38.036944444444444	-87.5325
EWB	US	41.67611111111111	-70.95694444444445
EWE	ID	-5.483333333333333	138.06666666666666
EWN	US	35.073055555555555	-77.04305555555555
EXT	GB	50.73444444444444	-3.4138888888888888
EYA	RU	53.68833333333333	127.0911111111111
EYK	RU	63.690555555555555	66.69972222222222
EYP	CO	5.319166666666667	-72.38388888888889
EYW	US	24.55	-81.76666666666667
EZS	TR	38.606944444444444	39.29138888888889
EZV	RU	63.92111111111111	65.03055555555555
FAC	PF	-16.686666666666667	-145.32972222222222
FAE	FO	62.06638888888889	-7.293055555555555
FAI	US	64.81666666666666	-147.86666666666667
FAO	PT	37.01444444444444	-7.965833333333333
FAR	US	46.92055555555555	-96.81583333333333
FAT	US	36.766666666666666	-119.71666666666667
FAU	OM	22.350833333333334	56.48972222222222
FAV	PF	-16.054166666666667	-145.65694444444446
FAY	US	34.99	-78.88305555555554
FBM	CD	-11.59138888888889	27.530833333333334
FCA	US	48.31055555555555	-114.25611111111111
FCN	DE	53.76777777777777	8.658611111111112
FDE	NO	61.39194444444444	5.760555555555555
FDF	MQ	14.591111111111111	-61.003055555555555
FDH	DE	47.671388888888885	9.511388888888888
FDU	CD	-3.3166666666666664	17.366666666666667
FEC	BR	-12.200555555555555	-38.907222222222224
FEG	UZ	40.36138888888889	71.74472222222222
FEN	BR	-3.855	-32.42333333333333
FEZ	MA	33.92722222222222	-4.978055555555556
FGU	PF	-15.82	-140.88583333333332
FHZ	PF	-15.992222222222221	-140.16472222222222
FIE	GB	59.53472222222222	-1.6286111111111112
FIH	CD	-4.3	15.3
FIZ	AU	-18.183611111111112	125.56
FJR	AE	25.112222222222222	56.323888888888895
FKB	DE	49.0	8.4
FKI	CD	0.4816666666666667	25.338055555555556
FKQ	ID	-2.9202777777777778	132.26694444444445
FKS	JP	37.2275	140.43055555555554
FLA	CO	1.5891666666666668	-75.56444444444445
FLL	US	26.066666666666666	-80.16666666666667
FLN	BR	-27.670555555555556	-48.54722222222222
FLO	US	34.1875	-79.72472222222223
FLR	IT	43.80888888888889	11.202777777777778
FLS	AU	-40.09444444444445	147.99388888888888
FLW	PT	39.45527777777778	-31.13138888888889
FLZ	ID	1.5558333333333334	98.8888888888889
FMA	AR	-26.212777777777777	-58.22805555555556
FMI	CD	-5.877777777777778	29.246111111111112
FMM	DE	47.988055555555555	10.237499999999999
FMO	DE	52.13472222222222	7.684722222222223
FMT	MV	0.1922222222222222	73.19972222222222
FMY	US	26.583333333333332	-81.86666666666666
FNA	SL	8.616666666666667	-13.2
FNC	PT	32.69416666666666	-16.778055555555554
FND	MV	6.1625000000000005	73.2875
FNI	FR	43.836666666666666	4.359999999999999
FNL	US	40.583333333333336	-105.08333333333333
FNT	US	42.96555555555556	-83.74361111111111
FOA	GB	60.12222222222222	-2.053611111111111
FOC	CN	25.935	119.66333333333334
FOD	US	42.551111111111105	-94.19194444444445
FOG	IT	41.43333333333333	15.534722222222221
FOK	US	40.841944444444444	-72.6325
FON	CR	10.469722222222222	-84.57888888888888
FOR	BR	-3.776388888888889	-38.5325
FPO	BS	26.558611111111112	-78.69555555555556
FRA	DE	50.03333333333333	8.566666666666666
FRD	US	48.534166666666664	-123.01722222222222
FRE	SB	-8.1075	159.57722222222222
FRL	IT	44.19555555555555	12.069722222222222
FRO	NO	61.58361111111111	5.0247222222222225
FRS	GT	16.915555555555553	-89.86972222222222
FRU	KG	43.061388888888885	74.4775
FRW	BW	-21.15972222222222	27.474444444444444
FSC	FR	41.50222222222222	9.096666666666668
FSD	US	43.581944444444446	-96.74194444444444
FSM	US	35.336666666666666	-94.36749999999999
FSP	PM	46.763333333333335	-56.17444444444444
FSZ	JP	34.79694444444444	138.1808333333333
FTA	VU	-19.51638888888889	170.23250000000002
FTE	AR	-50.28	-72.05333333333333
FTU	MG	-25.03805555555556	46.95611111111111
FTW	US	32.75111111111111	-97.33111111111111
FUE	ES	28.452777777777776	-13.863888888888889
FUG	CN	32.880833333333335	115.73361111111112
FUJ	JP	32.66638888888889	128.83277777777778
FUK	JP	33.58583333333333	130.45055555555555
FUN	TV	-8.525277777777779	179.19583333333333
FUO	CN	23.081666666666667	113.07
FUT	WF	-14.311388888888889	-178.06611111111113
FVM	MV	-0.3094444444444444	73.43277777777779
FWA	US	41.11666666666667	-85.11666666666666
FYJ	CN	48.19777777777777	134.36444444444444
FYN	CN	46.801111111111105	89.53833333333333
FYU	US	66.57138888888889	-145.25055555555556
FYV	US	36.05	-94.16666666666667
GAE	TN	33.7325	9.916111111111112
GAJ	JP	38.411944444444444	140.3713888888889
GAL	US	64.73611111111111	-156.9375
GAM	US	63.766666666666666	-171.73277777777778
GAN	MV	-0.6933333333333334	73.15555555555557
GAO	CU	20.085277777777776	-75.15833333333335
GAQ	ML	16.248333333333335	-0.005555555555555556
GAS	KE	-0.46361111111111114	39.64833333333333
GAU	IN	26.10611111111111	91.58583333333333
GAX	GA	-2.753888888888889	10.006944444444445
GAY	IN	24.744444444444447	84.95111111111112
GBE	BW	-24.55527777777778	25.918333333333333
GBI	IN	17.30777777777778	76.95861111111111
GBJ	GP	15.86888888888889	-61.269999999999996
GBT	IR	36.91138888888889	54.39805555555556
GBZ	NZ	-36.166666666666664	175.33333333333334
GCC	US	44.347500000000004	-105.54166666666667
GCH	IR	30.33611111111111	50.830000000000005
GCI	GB	49.43472222222222	-2.6019444444444444
GCK	US	37.927499999999995	-100.72444444444444
GCM	KY	19.29277777777778	-81.35777777777777
GCN	US	35.95	-112.15
GCW	US	35.99027777777778	-113.81638888888888
GDB	IN	21.52472222222222	80.28833333333333
GDE	ET	5.9350000000000005	43.578611111111115
GDL	MX	20.521666666666665	-103.3111111111111
GDN	PL	54.35194444444445	18.64638888888889
GDQ	ET	12.520000000000001	37.43416666666666
GDT	TC	21.44527777777778	-71.14527777777778
GDV	US	47.14055555555556	-104.80944444444444
GDX	RU	59.91111111111111	150.72055555555556
GEG	US	47.63333333333333	-117.53333333333333
GEL	BR	-28.282777777777778	-54.17027777777778
GEM	GQ	1.6913888888888888	11.023888888888889
GEO	GY	6.498611111111111	-58.25416666666667
GER	CU	21.834722222222222	-82.78388888888888
GES	PH	6.106388888888889	125.23527777777778
GET	AU	-28.796666666666667	114.7063888888889
GEV	SE	67.1325	20.814722222222223
GFF	AU	-34.25388888888889	146.06166666666667
GFK	US	47.94916666666666	-97.17611111111111
GGF	BR	-1.4791666666666667	-52.57805555555556
GGG	US	32.38388888888889	-94.71138888888889
GGJ	BR	-24.08111111111111	-54.19138888888889
GGM	KE	0.2713888888888889	34.7875
GGR	SO	8.458055555555555	48.5675
GGT	BS	23.5625	-75.87805555555555
GGW	US	48.212500000000006	-106.61472222222221
GHA	DZ	32.384166666666665	3.7941666666666665
GHB	BS	25.284722222222225	-76.33111111111111
GHC	BS	25.75027777777778	-77.85
GHS	ID	-0.2038888888888889	115.75972222222222
GHT	LY	25.145555555555553	10.142777777777777
GHV	RO	45.70611111111111	25.523333333333333
GIB	GI	36.151111111111106	-5.349722222222222
GIC	AU	-9.233055555555556	142.2175
GIL	PK	35.91888888888889	74.33361111111111
GIS	NZ	-38.663888888888884	177.97694444444446
GIT	TZ	-2.8666666666666667	32.166666666666664
GIU	LK	7.956111111111111	80.72833333333334
GIZ	SA	16.90111111111111	42.58583333333333
GJA	HN	16.44388888888889	-85.9038888888889
GJL	DZ	36.794999999999995	5.873611111111112
GJR	IS	65.99527777777777	-21.326944444444443
GJT	US	39.123333333333335	-108.52583333333334
GKA	PG	-6.081666666666666	145.39194444444445
GKK	MV	0.7330555555555556	73.43416666666667
GKN	US	62.156666666666666	-145.45472222222222
GLA	GB	55.88333333333333	-4.25
GLF	CR	8.653333333333334	-83.18138888888889
GLH	US	33.477222222222224	-90.985
GLK	SO	6.7813888888888885	47.45444444444445
GLN	MA	29.026666666666667	-10.050277777777778
GLO	GB	51.89388888888889	-2.1669444444444443
GLT	AU	-23.869722222222222	151.2227777777778
GLV	US	64.54805555555555	-163.01194444444445
GMA	CD	3.2352777777777777	19.77138888888889
GMB	ET	8.12888888888889	34.56305555555555
GMO	NG	10.298055555555555	10.898888888888889
GMQ	CN	34.4075	100.32222222222222
GMR	PF	-23.08	-134.89027777777778
GMZ	ES	28.029722222222222	-17.21472222222222
GND	GD	12.004166666666666	-61.78611111111111
GNI	TW	22.674166666666668	121.46611111111112
GNJ	AZ	40.735	46.3175
GNM	BR	-14.216666666666667	-42.78333333333333
GNS	ID	1.1669444444444446	97.70444444444445
GNU	US	59.117777777777775	-161.57611111111112
GNV	US	29.69	-82.27166666666666
GNY	TR	37.09444444444445	38.846944444444446
GOA	IT	44.413333333333334	8.8375
GOB	ET	7.118888888888889	40.044999999999995
GOH	GL	64.19083333333333	-51.67805555555555
GOI	IN	15.380833333333333	73.83138888888888
GOJ	RU	56.230000000000004	43.784166666666664
GOM	CD	-1.6708333333333332	29.238333333333333
GOP	IN	26.741111111111113	83.45
GOQ	CN	36.400555555555556	94.78833333333333
GOT	SE	57.71666666666667	11.966666666666667
GOU	CM	9.335833333333333	13.370000000000001
GOV	AU	-12.269444444444446	136.81833333333333
GOX	IN	15.731666666666667	73.86805555555554
GOY	RU	64.33416666666666	100.43222222222222
GOZ	BG	43.15138888888889	25.712777777777777
GPA	GR	38.151111111111106	21.425555555555558
GPB	BR	-25.388055555555557	-51.5225
GPI	CO	2.57	-77.89833333333334
GPS	EC	-0.4538888888888889	-90.26583333333333
GPT	US	30.40722222222222	-89.07
GRB	US	44.48555555555556	-88.13388888888889
GRI	US	40.9675	-98.30972222222222
GRJ	ZA	-34.00555555555555	22.378888888888888
GRO	ES	41.966944444444444	2.8102777777777774
GRQ	NL	53.125	6.583333333333333
GRR	US	42.880833333333335	-85.52277777777778
GRV	RU	43.388333333333335	45.7
GRW	PT	39.092222222222226	-28.029722222222222
GRX	ES	37.18861111111111	-3.777222222222222
GRY	IS	66.54583333333333	-18.01722222222222
GRZ	AT	46.993611111111115	15.44
GSM	IR	26.751944444444444	55.89722222222222
GSO	US	36.09777777777778	-79.93722222222223
GSP	US	34.85	-82.38333333333334
GST	US	58.416666666666664	-135.7
GSV	RU	51.71277777777778	46.17111111111111
GTE	AU	-13.9725	136.4586111111111
GTF	US	47.5	-111.36666666666666
GTO	ID	0.6372222222222222	122.85138888888888
GTP	US	42.51	-123.38777777777779
GTS	AU	-20.548333333333336	130.35
GTZ	TZ	-2.160833333333333	34.225
GUA	GT	14.584444444444445	-90.52722222222222
GUC	US	38.535555555555554	-106.93305555555555
GUM	GU	13.483333333333333	144.73333333333332
GUO	SO	5.3175	45.98527777777778
GUP	US	35.51111111111111	-108.78944444444444
GUR	PG	-10.311388888888889	150.33916666666667
GUW	KZ	47.121944444444445	51.82138888888889
GVA	CH	46.238055555555555	6.108888888888888
GVN	RU	48.92722222222222	140.03416666666666
GVR	BR	-18.89527777777778	-41.98222222222223
GVX	SE	60.68333333333333	17.166666666666668
GWD	PK	25.233333333333334	62.32944444444445
GWL	IN	26.293333333333337	78.22777777777777
GWT	DE	54.913333333333334	8.340555555555556
GXF	YE	15.966111111111111	48.788333333333334
GXH	CN	34.81888888888889	102.62083333333332
GYA	BO	-10.817777777777778	-65.34722222222221
GYE	EC	-2.1574999999999998	-79.88361111111112
GYL	AU	-16.63611111111111	128.45027777777776
GYN	BR	-16.631944444444446	-49.220555555555556
GYS	CN	32.39	105.69305555555556
GYU	CN	36.07888888888889	106.21638888888889
GYZ	AU	-28.034166666666668	123.81444444444445
GZG	CN	30.142222222222223	101.73972222222223
GZO	SB	-8.0975	156.8636111111111
GZP	TR	36.29805555555556	32.290277777777774
GZT	TR	36.947222222222216	37.478611111111114
HAA	NO	70.48666666666666	22.139722222222222
HAC	JP	33.115	139.78583333333333
HAD	SE	56.691111111111105	12.820277777777777
HAJ	DE	52.45	9.7
HAK	CN	19.934722222222224	110.4588888888889
HAM	DE	53.63333333333333	9.983333333333333
HAN	VN	21.22111111111111	105.80722222222222
HAQ	MV	6.746388888888889	73.16861111111112
HAR	US	40.266666666666666	-76.86666666666666
HAS	SA	27.438055555555557	41.686388888888885
HAU	NO	59.34527777777778	5.208333333333334
HAV	CU	22.990277777777777	-82.40777777777778
HAY	CO	8.246666666666666	-73.58055555555555
HBA	AU	-42.836111111111116	147.5102777777778
HBQ	CN	38.00833333333333	100.64083333333333
HBX	IN	15.361666666666666	75.08694444444444
HCJ	CN	24.784166666666668	107.70027777777779
HCQ	AU	-18.233333333333334	127.66666666666667
HCR	US	62.19027777777777	-159.7725
HCZ	CN	25.753333333333334	112.84444444444443
HDF	DE	53.87861111111111	14.152222222222223
HDG	CN	36.52583333333333	114.42500000000001
HDK	MV	6.630833333333334	73.06777777777778
HDN	US	40.483333333333334	-107.22361111111111
HDS	ZA	-24.34861111111111	30.946944444444444
HDY	TH	6.932777777777778	100.39500000000001
HEA	AF	34.21	62.22833333333333
HEH	MM	20.746944444444445	96.79194444444444
HEI	DE	54.15333333333333	8.901666666666667
HEK	CN	50.17166666666667	127.30944444444444
HEL	FI	60.31722222222223	24.96333333333333
HER	GR	35.33972222222222	25.18027777777778
HET	CN	40.85138888888889	111.82416666666666
HFD	US	41.766666666666666	-72.68333333333334
HFE	CN	31.991111111111113	116.98916666666666
HFN	IS	64.29555555555555	-15.227222222222222
HFS	SE	60.019999999999996	13.578888888888889
HFT	NO	70.67916666666667	23.66611111111111
HGA	SO	9.51388888888889	44.08388888888889
HGD	AU	-20.813055555555557	144.2252777777778
HGH	CN	30.229444444444443	120.43444444444445
HGI	IN	26.967777777777776	93.64055555555557
HGL	DE	54.18527777777778	7.9158333333333335
HGN	TH	19.301666666666666	97.97500000000001
HGO	CI	9.387222222222222	-5.557222222222222
HGR	US	39.70805555555556	-77.72944444444444
HGU	PG	-5.826666666666666	144.29583333333332
HHH	US	32.22222222222222	-80.69888888888889
HHQ	TH	12.630277777777778	99.95333333333333
HHR	US	33.922777777777775	-118.33472222222221
HHZ	PF	-17.548055555555557	-142.61333333333332
HIA	CN	33.7875	119.12777777777777
HIB	US	47.38666666666666	-92.83888888888889
HID	AU	-10.586388888888889	142.29
HIJ	JP	34.43333333333333	132.92499999999998
HIN	KR	35.08861111111111	128.07027777777776
HIR	SB	-9.429444444444444	160.0511111111111
HIS	AU	-20.060000000000002	148.8836111111111
HJJ	CN	27.441388888888888	109.70027777777779
HJR	IN	24.81722222222222	79.91861111111112
HKB	US	63.8675	-148.97027777777777
HKD	JP	41.769999999999996	140.82194444444445
HKG	HK	22.333333333333332	114.2
HKK	NZ	-42.71138888888889	170.98416666666665
HKN	PG	-5.4622222222222225	150.405
HKR	KE	-1.1455555555555554	35.124722222222225
HKT	TH	8.112222222222222	98.30527777777777
HLD	CN	49.20861111111111	119.81666666666666
HLE	SH	-15.958055555555555	-5.645
HLH	CN	46.19472222222222	122.00833333333334
HLN	US	46.606944444444444	-111.98277777777778
HLZ	NZ	-37.86666666666667	175.33194444444445
HMA	RU	61.02861111111111	69.08611111111111
HMB	EG	26.342777777777776	31.74277777777778
HME	DZ	31.673055555555557	6.140555555555556
HMI	CN	42.840833333333336	93.67083333333333
HMO	MX	29.09583333333333	-111.04777777777778
HMS	ID	-1.0219444444444443	114.92583333333334
HMV	SE	65.80611111111111	15.082777777777778
HNA	JP	39.42861111111111	141.13527777777776
HNH	US	58.09583333333334	-135.4127777777778
HNL	US	21.32777777777778	-157.92222222222222
HNM	US	20.795555555555556	-156.01444444444445
HNN	PG	-6.246111111111111	142.17694444444444
HNS	US	59.24388888888889	-135.52361111111114
HNY	CN	26.905555555555555	112.62833333333333
HOB	US	32.68333333333333	-103.21666666666667
HOD	YE	14.753055555555555	42.97638888888889
HOE	LA	20.258055555555554	100.43722222222223
HOF	SA	25.28527777777778	49.48527777777778
HOG	CU	20.785555555555558	-76.315
HOH	AT	47.38444444444444	9.699722222222222
HOI	PF	-18.07472222222222	-140.94583333333333
HOM	US	59.64555555555555	-151.47666666666666
HOR	PT	38.519999999999996	-28.71638888888889
HOT	US	34.47805555555556	-93.0961111111111
HOU	US	29.65	-95.3
HOV	NO	62.17916666666667	6.071111111111111
HOX	MM	24.898611111111112	94.91472222222222
HPA	TO	-19.778055555555554	-174.3413888888889
HPB	US	61.52388888888889	-166.14666666666665
HPG	CN	31.633333333333333	110.33777777777777
HPH	VN	20.819444444444443	106.72500000000001
HPN	US	41.066944444444445	-73.7075
HQL	CN	37.65	75.29527777777777
HQQ	CN	35.869166666666665	114.46583333333334
HRB	CN	45.623333333333335	126.25027777777778
HRE	ZW	-17.931944444444447	31.092777777777776
HRF	MV	6.973055555555556	72.89444444444445
HRG	EG	27.178611111111113	33.80138888888889
HRI	LK	6.283888888888889	81.12388888888889
HRL	US	26.22861111111111	-97.65444444444445
HRO	US	36.26138888888889	-93.15472222222223
HSA	KZ	43.32277777777778	68.40194444444445
HSC	CN	24.833333333333332	113.61666666666666
HSG	JP	33.14972222222222	130.30222222222224
HSL	US	65.69777777777779	-156.3513888888889
HSN	CN	29.934722222222224	122.36194444444443
HSR	IN	22.374444444444446	71.035
HSV	US	34.71666666666667	-86.58333333333333
HTA	RU	52.02638888888889	113.30555555555556
HTG	RU	71.97805555555556	102.4925
HTI	AU	-20.358055555555556	148.95166666666665
HTN	CN	37.03805555555555	79.865
HTS	US	38.36833333333333	-82.55916666666667
HTT	CN	38.25527777777778	90.8461111111111
HTY	TR	36.359722222222224	36.28472222222222
HUH	PF	-16.68722222222222	-151.02166666666668
HUI	VN	16.40083333333333	107.70305555555557
HUN	TW	24.023055555555555	121.61777777777777
HUO	CN	45.58416666666667	119.73833333333333
HUS	US	66.04305555555555	-154.26111111111112
HUU	PE	-9.88	-76.20722222222223
HUV	SE	61.76694444444444	17.084166666666665
HUX	MX	15.775277777777779	-96.2625
HUY	GB	53.574444444444445	-0.35083333333333333
HUZ	CN	23.04888888888889	114.60027777777778
HVB	AU	-25.32	152.8802777777778
HVD	MN	47.95416666666667	91.62805555555555
HVG	NO	71.00972222222222	25.980277777777776
HVN	US	41.263888888888886	-72.88694444444445
HVR	US	48.54416666666666	-109.75916666666667
HWD	US	37.659166666666664	-122.12277777777777
HWN	ZW	-18.63	27.02111111111111
HXD	CN	37.125	97.26861111111111
HYA	US	41.66555555555556	-70.28138888888888
HYD	IN	17.233333333333334	78.4
HYG	US	55.20527777777778	-132.82805555555555
HYN	CN	28.56527777777778	121.43027777777779
HYS	US	38.85027777777778	-99.27555555555556
HZA	CN	35.213055555555556	115.73694444444445
HZG	CN	33.13388888888889	107.20472222222223
HZH	CN	26.323055555555555	109.15166666666667
IAA	RU	67.43333333333334	86.63333333333334
IAG	US	43.10722222222223	-78.94611111111111
IAL	BR	-16.20861111111111	-42.32333333333334
IAM	DZ	28.051666666666666	9.642777777777777
IAN	US	66.97583333333334	-160.43666666666667
IAO	PH	9.859166666666667	126.01527777777778
IAR	RU	57.55888888888889	40.157777777777774
IAS	RO	47.17861111111111	27.620555555555555
IBA	NG	7.3625	3.9783333333333335
IBB	EC	-0.9427777777777778	-90.95305555555557
IBE	CO	4.421111111111111	-75.13361111111112
IBR	JP	36.17833333333333	140.41805555555555
IBZ	ES	38.87277777777778	1.3730555555555557
ICI	FJ	-17.743333333333336	-179.34222222222223
ICO	PH	11.459999999999999	123.25055555555555
ICT	US	37.65	-97.43333333333334
IDA	US	43.51444444444444	-112.07083333333333
IDR	IN	22.721666666666664	75.80111111111111
IEG	PL	52.13861111111111	15.79861111111111
IEV	UA	50.4	30.466666666666665
IFJ	IS	66.05805555555555	-23.135277777777777
IFN	IR	32.751666666666665	51.86972222222222
IFP	US	35.161944444444444	-114.56
IFU	MV	5.707222222222223	73.02555555555556
IGA	BS	20.974999999999998	-73.66694444444445
IGD	TR	39.97277777777778	43.88444444444444
IGG	US	59.323888888888895	-155.9013888888889
IGR	AR	-25.737222222222222	-54.473333333333336
IGT	RU	43.32416666666667	45.003055555555555
IGU	BR	-25.59611111111111	-54.48722222222222
IHR	IR	27.23611111111111	60.72
IIA	IE	53.091944444444444	-9.57
IIL	IR	33.58555555555556	46.405
IJK	RU	56.82916666666667	53.45777777777778
IKE	GL	70.49805555555555	-51.30305555555555
IKI	JP	33.75	129.78333333333333
IKO	US	52.94166666666666	-168.85083333333333
IKS	RU	71.69722222222222	128.90222222222224
IKT	RU	52.268055555555556	104.3888888888889
IKU	KG	42.58555555555556	76.70194444444445
ILD	ES	41.61333333333334	0.6247222222222223
ILE	US	31.15	-97.71666666666667
ILG	US	39.68333333333333	-75.6
ILI	US	59.754444444444445	-154.91083333333333
ILM	US	34.27055555555555	-77.9025
ILN	US	39.42305555555555	-83.78666666666666
ILO	PH	10.713055555555554	122.54527777777777
ILP	NC	-22.58888888888889	167.45583333333332
ILQ	PE	-17.695	-71.34416666666667
ILR	NG	8.440277777777778	4.493888888888889
ILY	GB	55.68194444444444	-6.256666666666667
IMF	IN	24.76	93.89666666666668
IMK	NP	29.97083333333333	81.81805555555555
IMP	BR	-5.5313888888888885	-47.46
IMT	US	45.81666666666667	-88.11666666666666
INB	BZ	16.534166666666668	-88.44305555555556
INC	CN	38.49333333333333	106.01194444444444
IND	US	39.717222222222226	-86.29444444444444
INF	DZ	19.561111111111114	5.751388888888889
INH	MZ	-23.87638888888889	35.40861111111111
INI	RS	43.33722222222222	21.853611111111114
INL	US	48.566111111111105	-93.40305555555557
INN	AT	47.26694444444444	11.383333333333333
INQ	IE	53.058611111111105	-9.50611111111111
INU	NR	-0.5455555555555556	166.91694444444443
INV	GB	57.54	-4.05
INZ	DZ	27.25111111111111	2.5119444444444445
IOA	GR	39.69638888888888	20.822499999999998
IOM	GB	54.083333333333336	-4.624166666666667
ION	CG	1.6166666666666667	18.066666666666666
IOQ	GL	65.54805555555555	-38.97666666666667
IOR	IE	53.106944444444444	-9.65388888888889
IOS	BR	-14.815833333333334	-39.03333333333333
IPA	VU	-18.855833333333333	169.2827777777778
IPC	CL	-27.16472222222222	-109.42194444444445
IPH	MY	4.569166666666667	101.09305555555555
IPI	CO	0.8619444444444444	-77.67166666666667
IPL	US	32.833333333333336	-115.56666666666666
IPN	BR	-19.47083333333333	-42.487500000000004
IQA	IQ	33.785555555555554	42.441111111111105
IQM	CN	38.14944444444444	85.53305555555555
IQN	CN	35.802499999999995	107.59972222222221
IQQ	CL	-20.53527777777778	-70.18138888888889
IQT	PE	-3.7847222222222223	-73.30888888888889
IRA	SB	-10.449166666666667	161.8986111111111
IRC	US	65.82777777777777	-144.07583333333332
IRG	AU	-12.786944444444444	143.30472222222224
IRI	TZ	-7.67	35.75194444444445
IRJ	AR	-29.380555555555556	-66.79583333333333
IRK	US	40.093611111111116	-92.54444444444444
IRM	RU	63.197222222222216	64.4413888888889
IRP	CD	2.828611111111111	27.5875
IRZ	BR	-0.37861111111111106	-64.99222222222222
ISA	AU	-20.663888888888888	139.4886111111111
ISB	PK	33.54833333333333	72.825
ISC	GB	49.9	-6.4
ISE	TR	37.855555555555554	30.368333333333332
ISG	JP	24.39638888888889	124.245
ISK	IN	19.964166666666667	73.80749999999999
ISP	US	40.79527777777778	-73.10027777777778
IST	TR	41.03333333333333	28.950277777777778
ISU	IQ	35.5625	45.31583333333333
ITB	BR	-4.242222222222222	-56.00055555555556
ITH	US	42.49111111111111	-76.46083333333334
ITO	US	19.72138888888889	-155.04833333333332
ITU	RU	45.256388888888885	147.95583333333332
IUE	NU	-19.07777777777778	-169.92666666666665
IUI	GL	73.20166666666667	-56.01361111111111
IVC	NZ	-46.414722222222224	168.31305555555556
IVL	FI	68.60722222222222	27.405277777777776
IVR	AU	-29.886944444444445	151.14499999999998
IWA	RU	57.05833333333333	40.980000000000004
IWD	US	46.52777777777778	-90.13277777777778
IWJ	JP	34.67638888888889	131.7902777777778
IWK	JP	34.14611111111111	132.2472222222222
IXA	IN	23.886944444444445	91.24055555555556
IXB	IN	26.68111111111111	88.3286111111111
IXC	IN	30.673333333333336	76.78861111111111
IXD	IN	25.44	81.73388888888888
IXE	IN	12.961388888888887	74.89
IXG	IN	15.859166666666667	74.61833333333333
IXI	IN	27.294444444444448	94.09638888888888
IXJ	IN	32.689166666666665	74.83749999999999
IXK	IN	21.316666666666666	70.26666666666667
IXL	IN	34.13583333333333	77.54638888888888
IXM	IN	9.834444444444445	78.09333333333333
IXR	IN	23.31416666666667	85.32166666666666
IXS	IN	24.913055555555555	92.9786111111111
IXT	IN	28.06722222222222	95.33638888888889
IXU	IN	19.86277777777778	75.39805555555556
IXW	IN	22.816666666666666	86.16666666666667
IXX	IN	17.908055555555553	77.48583333333333
IXY	IN	23.11277777777778	70.10055555555554
IXZ	IN	11.64111111111111	92.72972222222222
IZA	BR	-21.51222222222222	-43.17055555555555
IZM	TR	38.28333333333333	27.166666666666668
IZO	JP	35.41361111111111	132.89
IZT	MX	16.448888888888888	-95.09388888888888
JAC	US	43.60722222222223	-110.73777777777778
JAE	PE	-5.593611111111111	-78.77361111111111
JAF	LK	9.792222222222222	80.07
JAI	IN	26.824166666666667	75.81222222222222
JAN	US	32.31666666666667	-90.08333333333333
JAR	IR	28.586666666666666	53.57888888888889
JAT	MH	7.0	168.98333333333332
JAU	PE	-11.784166666666666	-75.47305555555556
JAV	GL	69.24277777777777	-51.058055555555555
JAW	BR	-7.586388888888888	-40.535555555555554
JAX	US	30.416666666666668	-81.63333333333334
JBB	ID	-8.242222222222221	113.69444444444444
JBR	US	35.83305555555556	-90.64944444444446
JCH	GL	68.82055555555556	-51.17222222222222
JCK	AU	-20.668333333333333	141.7225
JCS	BR	-5.211666666666667	-40.705000000000005
JCU	ES	35.89222222222222	-5.3069444444444445
JDH	IN	26.25111111111111	73.04888888888888
JDO	BR	-7.2186111111111115	-39.271388888888886
JDZ	CN	29.339166666666664	117.1763888888889
JED	SA	21.679444444444446	39.156666666666666
JEE	HT	18.666666666666668	-74.16666666666667
JEG	GL	68.72111111111111	-52.79361111111111
JEJ	MH	7.5649999999999995	168.96194444444444
JEK	ZM	-15.633333333333333	29.603611111111114
JER	GB	49.20777777777778	-2.1952777777777777
JFR	GL	62.01305555555555	-49.66861111111111
JGA	IN	22.465555555555554	70.0125
JGB	IN	19.066666666666666	82.03333333333333
JGD	CN	50.378055555555555	124.11555555555555
JGN	CN	39.85722222222223	98.34138888888889
JGO	GL	69.25083333333333	-53.53805555555555
JGS	CN	26.8575	114.73722222222223
JHB	MY	1.6388888888888888	103.67027777777778
JHG	CN	21.973055555555554	100.76305555555555
JHM	US	20.963055555555556	-156.67305555555555
JHS	GL	66.95138888888889	-53.72944444444445
JIA	BR	-11.419722222222221	-58.71
JIB	DJ	11.547222222222222	43.159444444444446
JIC	CN	38.54194444444444	102.34861111111111
JIJ	ET	9.363333333333333	42.78972222222222
JIK	GR	37.68277777777777	26.346944444444443
JIM	ET	7.662777777777778	36.81805555555556
JIN	UG	0.4519444444444445	33.19444444444444
JIO	ID	-8.139166666666666	127.90333333333334
JIQ	CN	29.514722222222222	108.83166666666666
JIU	CN	29.47861111111111	115.80222222222221
JJD	BR	-2.9066666666666667	-40.35805555555556
JJG	BR	-28.67527777777778	-49.059444444444445
JJM	KE	0.22805555555555557	38.17222222222222
JJN	CN	24.795555555555556	118.58805555555556
JJU	GL	60.715833333333336	-46.03
JKG	SE	57.7575	14.06861111111111
JKH	GR	38.34305555555556	26.140555555555554
JKL	GR	36.96333333333334	26.941111111111113
JKR	NP	26.70888888888889	85.92416666666666
JKT	ID	-6.154166666666667	106.84888888888888
JLN	US	37.151944444444446	-94.49833333333333
JLR	IN	23.17777777777778	80.05194444444444
JMA	BR	-20.26	-42.18416666666666
JMJ	CN	22.4175	99.78416666666666
JMK	GR	37.434999999999995	25.348055555555554
JMO	NP	28.780555555555555	83.72305555555556
JMS	US	46.92972222222222	-98.67833333333334
JMU	CN	46.843333333333334	130.46527777777777
JNB	ZA	-26.25	28.15
JNG	CN	35.293055555555554	116.34666666666666
JNN	GL	60.14194444444444	-45.23305555555556
JNS	GL	60.9175	-46.059999999999995
JNU	US	58.355000000000004	-134.57638888888889
JNX	GR	37.08222222222223	25.36861111111111
JNZ	CN	41.1025	121.06194444444444
JOE	FI	62.66277777777778	29.6075
JOG	ID	-7.788055555555555	110.43166666666667
JOI	BR	-26.224444444444444	-48.7975
JOS	NG	9.639722222222222	8.870000000000001
JPA	BR	-7.148333333333333	-34.95055555555556
JPE	BR	-3.0180555555555557	-47.32138888888889
JPO	BR	-7.039166666666667	-37.25222222222222
JPR	BR	-10.870833333333334	-61.846944444444446
JQA	GL	70.73361111111112	-52.69277777777778
JRG	IN	21.91333333333333	84.05111111111111
JRH	IN	26.731666666666666	94.17555555555556
JRK	GL	61.176944444444445	-48.419999999999995
JRO	TZ	-3.4294444444444445	37.074444444444445
JRT	BR	-2.1869444444444444	-56.090833333333336
JSA	IN	26.88861111111111	70.865
JSB	BR	-4.043055555555555	-40.89416666666666
JSH	GR	35.21611111111111	26.10138888888889
JSI	GR	39.17722222222222	23.503611111111113
JSJ	CN	47.11	132.6602777777778
JSO	BR	-3.680833333333333	-40.340833333333336
JSR	BD	23.183888888888887	89.16083333333334
JST	US	40.316111111111105	-78.83388888888888
JSU	GL	65.41250000000001	-52.939722222222215
JSY	GR	37.422777777777775	24.95
JTC	BR	-22.16361111111111	-49.06916666666667
JTR	GR	36.399166666666666	25.479444444444443
JTY	GR	36.580000000000005	26.375555555555557
JUB	SS	4.871944444444445	31.601111111111113
JUH	CN	30.740277777777777	117.68666666666667
JUI	DE	53.68111111111111	7.055833333333333
JUJ	AR	-24.392777777777777	-65.09777777777778
JUK	GL	71.05527777777777	-51.88361111111111
JUL	PE	-15.467222222222222	-70.15805555555556
JUM	NP	29.274444444444445	82.19361111111111
JUV	GL	72.79055555555556	-56.13111111111111
JUZ	CN	28.96722222222222	118.9
JWN	IR	36.774166666666666	48.358333333333334
JXA	CN	45.2925	131.19194444444446
JYR	IR	28.72722222222222	57.67027777777778
JYV	FI	62.39944444444444	25.678333333333335
JZH	CN	32.85666666666667	103.68305555555555
KAA	ZM	-10.218055555555555	31.134722222222223
KAB	ZW	-16.51972222222222	28.884999999999998
KAD	NG	10.696111111111112	7.319999999999999
KAE	US	56.96138888888889	-133.9102777777778
KAJ	FI	64.28555555555555	27.6925
KAL	US	64.31805555555555	-158.74305555555554
KAN	NG	12.0475	8.524722222222223
KAO	FI	65.9875	29.239444444444445
KAW	MM	10.049166666666666	98.53805555555556
KAZ	ID	1.1847222222222222	127.89611111111111
KBC	US	66.27222222222223	-145.8188888888889
KBH	TZ	-3.7916666666666665	32.64666666666667
KBK	IN	26.77472222222222	83.89500000000001
KBL	AF	34.56583333333333	69.2125
KBR	MY	6.1675	102.2911111111111
KBT	MH	8.900833333333333	170.84361111111113
KBU	ID	-3.296111111111111	116.16472222222222
KBV	TH	8.095833333333333	98.9888888888889
KCA	CN	41.71805555555556	82.98666666666666
KCC	US	56.0125	-132.8338888888889
KCH	MY	1.4841666666666666	110.34388888888888
KCK	RU	57.772777777777776	108.0586111111111
KCL	US	56.3	-158.53333333333333
KCM	TR	37.538888888888884	36.95333333333333
KCT	LK	5.993611111111111	80.32027777777778
KCZ	JP	33.54611111111111	133.66944444444442
KDH	AF	31.505555555555556	65.84777777777778
KDI	ID	-4.081666666666666	122.41833333333334
KDL	EE	58.990833333333335	22.830833333333334
KDM	MV	0.48833333333333334	72.9961111111111
KDO	MV	1.8583333333333334	73.51972222222223
KDP	PG	-5.866666666666667	143.5
KDU	PK	35.33305555555556	75.54638888888888
KDV	FJ	-19.058333333333334	178.15722222222223
KEA	TM	37.82222222222222	65.13555555555556
KEI	ID	-6.666666666666667	139.38333333333333
KEJ	RU	55.269999999999996	86.10722222222222
KEK	US	59.35333333333333	-157.4763888888889
KEM	FI	65.7786111111111	24.580833333333334
KEO	CI	9.53888888888889	-7.5625
KEP	NP	28.103611111111114	81.66694444444445
KER	IR	30.274444444444445	56.95111111111111
KET	MM	21.301666666666666	99.63611111111112
KEU	KE	-1.586666666666667	35.25861111111111
KEW	CA	52.992222222222225	-92.83888888888889
KFP	US	54.84805555555556	-163.4063888888889
KFS	TR	41.315	33.79611111111111
KGA	CD	-5.9	22.469166666666666
KGC	AU	-35.715833333333336	137.52583333333334
KGD	RU	54.89	20.592499999999998
KGE	SB	-7.328333333333333	157.58333333333334
KGF	KZ	49.670833333333334	73.33444444444444
KGI	AU	-30.79138888888889	121.46361111111112
KGK	US	59.727222222222224	-157.26166666666666
KGL	RW	-1.968611111111111	30.139444444444443
KGP	RU	62.190555555555555	74.53388888888888
KGQ	GL	72.38111111111111	-55.53666666666666
KGS	GR	36.79333333333333	27.091666666666665
KGT	CN	30.14472222222222	101.73777777777778
KGX	US	62.897777777777776	-160.06722222222223
KHD	IR	33.43861111111111	48.280833333333334
KHG	CN	39.5425	76.02
KHH	TW	22.577222222222222	120.35
KHI	PK	24.906666666666666	67.16083333333334
KHM	MM	25.98777777777778	95.67416666666666
KHN	CN	28.86388888888889	115.90222222222222
KHQ	GL	74.57944444444443	-57.23555555555556
KHS	OM	26.171111111111113	56.24055555555556
KHV	RU	48.528055555555554	135.18833333333333
KHX	UG	-0.7194444444444444	29.7
KHY	IR	38.42222222222222	44.97666666666667
KHZ	PF	-15.780833333333334	-145.12416666666667
KID	SE	55.92166666666667	14.085555555555556
KIE	PG	-6.306111111111111	155.72861111111112
KIF	CA	53.0125	-89.85583333333332
KIH	IR	26.5275	53.97916666666667
KIJ	JP	37.95583333333334	139.12083333333334
KIK	IQ	35.516666666666666	44.3
KIM	ZA	-28.802777777777777	24.76527777777778
KIN	JM	17.933333333333334	-76.78333333333333
KIO	MH	5.643888888888888	169.12444444444446
KIR	IE	52.18083333333333	-9.523888888888889
KIS	KE	-0.08555555555555555	34.72972222222222
KIT	GR	36.274166666666666	23.016944444444444
KIV	MD	46.92777777777778	28.930833333333336
KJA	RU	56.17305555555555	92.49333333333334
KJB	IN	15.714722222222221	78.17833333333334
KJH	CN	26.971944444444443	107.9875
KJI	CN	48.22166666666667	86.9961111111111
KJJ	UG	0.19722222222222224	32.55305555555555
KJK	BE	50.81722222222223	3.2047222222222222
KJT	ID	-6.6513888888888895	108.16944444444445
KKA	US	64.9388888888889	-161.1552777777778
KKB	US	58.190555555555555	-152.36777777777777
KKC	TH	16.464444444444442	102.78222222222222
KKE	NZ	-35.257777777777775	173.91194444444446
KKH	US	59.96027777777778	-162.8813888888889
KKI	US	60.905277777777776	-161.42388888888888
KKJ	JP	33.84583333333334	131.03472222222223
KKN	NO	69.72583333333334	29.891388888888887
KKQ	RU	65.7	82.45
KKR	PF	-15.663333333333334	-146.88472222222222
KKS	IR	33.89527777777778	51.57694444444445
KKX	JP	28.321666666666665	129.92666666666665
KLF	RU	54.54861111111111	36.37166666666667
KLG	US	61.53583333333333	-160.3477777777778
KLH	IN	16.66472222222222	74.28944444444444
KLL	US	59.126111111111115	-156.86083333333332
KLN	US	57.53444444444444	-153.9777777777778
KLO	PH	11.684444444444445	122.38111111111111
KLR	SE	56.68555555555555	16.2875
KLU	AT	46.64277777777778	14.337777777777779
KLV	CZ	50.20305555555556	12.915000000000001
KLW	US	55.57916666666667	-133.07611111111112
KLX	GR	37.068333333333335	22.025555555555556
KME	RW	-2.4622222222222225	28.908055555555553
KMG	CN	25.108611111111113	102.935
KMI	JP	31.877222222222223	131.44861111111112
KMJ	JP	32.83722222222222	130.855
KMN	CD	-8.64111111111111	25.25
KMO	US	58.93194444444444	-158.90194444444444
KMQ	JP	36.39472222222222	136.40666666666667
KMS	GH	6.714444444444444	-1.5908333333333335
KMU	SO	-0.3772222222222222	42.45944444444445
KMV	MM	23.18888888888889	94.05194444444444
KMW	RU	57.75	40.93333333333333
KMY	US	57.00138888888889	-154.15166666666667
KND	CD	-2.9191666666666665	25.915277777777778
KNG	ID	-3.6444444444444444	133.69555555555556
KNH	TW	24.429722222222225	118.36166666666666
KNK	US	59.43333333333333	-154.8036111111111
KNQ	NC	-21.05388888888889	164.8388888888889
KNS	AU	-39.8775	143.87833333333333
KNU	IN	26.440555555555555	80.36722222222221
KNW	US	59.45055555555556	-157.32861111111112
KNX	AU	-15.778055555555556	128.70749999999998
KNY	RU	58.48083333333334	99.09833333333333
KOA	US	19.73888888888889	-156.04555555555555
KOC	NC	-20.54638888888889	164.25555555555556
KOE	ID	-10.171666666666667	123.67111111111112
KOI	GB	58.95777777777778	-2.9052777777777776
KOJ	JP	31.803333333333335	130.71944444444443
KOK	FI	63.721111111111114	23.143055555555556
KOM	PG	-6.148333333333333	143.6575
KOO	CD	-5.4	27.0
KOP	TH	17.385277777777777	104.64194444444445
KOS	KH	10.579722222222221	103.63694444444445
KOT	US	63.0325	-163.53055555555557
KOV	KZ	53.32916666666667	69.59472222222222
KOW	CN	25.85138888888889	114.77527777777777
KOY	US	57.16027777777778	-154.22916666666666
KOZ	US	57.925555555555555	-152.49666666666664
KPB	US	56.35194444444445	-133.62222222222223
KPN	US	59.93527777777778	-164.03194444444446
KPO	KR	35.98777777777778	129.42055555555555
KPR	US	58.48861111111111	-152.58305555555555
KPV	US	55.906666666666666	-159.16083333333333
KPW	RU	67.845	166.13972222222222
KPY	US	57.93055555555555	-153.04
KQA	US	54.13305555555556	-165.78083333333333
KQH	IN	26.591944444444444	74.81444444444445
KQT	TJ	37.867222222222225	68.86472222222221
KRF	SE	63.04861111111111	17.76888888888889
KRK	PL	50.06444444444444	19.94472222222222
KRL	CN	41.69916666666666	86.13027777777778
KRN	SE	67.82194444444444	20.336666666666666
KRO	RU	55.47083333333334	65.41055555555556
KRP	DK	56.2975	9.124722222222223
KRS	NO	58.13333333333333	8.016666666666667
KRT	SD	15.589444444444444	32.55305555555555
KRW	TM	40.06083333333333	53.00805555555556
KRY	CN	45.46611111111111	84.9538888888889
KSA	FM	5.356944444444444	162.95833333333331
KSC	SK	48.66305555555555	21.241111111111113
KSE	UG	0.185	30.101944444444445
KSF	DE	51.3125	9.479722222222222
KSH	IR	34.34805555555556	47.156666666666666
KSJ	GR	35.421388888888885	26.91
KSM	US	62.06055555555555	-163.30083333333334
KSN	KZ	53.206944444444446	63.55027777777777
KSO	GR	40.44638888888888	21.28222222222222
KSQ	UZ	38.801944444444445	65.77472222222222
KSU	NO	63.111666666666665	7.8244444444444445
KSY	TR	40.56222222222222	43.115
KTA	AU	-20.71222222222222	116.77333333333333
KTB	US	55.68333333333333	-132.53333333333333
KTD	JP	25.94472222222222	131.32722222222222
KTE	MY	4.5408333333333335	103.42583333333334
KTF	NZ	-40.85	172.8
KTG	ID	-1.8166666666666667	109.96361111111112
KTJ	KE	-1.263611111111111	35.02777777777778
KTL	KE	0.9733333333333334	34.959722222222226
KTM	NP	27.696666666666665	85.35916666666667
KTN	US	55.333333333333336	-131.65
KTR	AU	-14.521111111111113	132.3777777777778
KTS	US	65.33222222222221	-166.4675
KTT	FI	67.70111111111112	24.846944444444443
KTW	PL	50.47416666666667	19.08
KUA	MY	3.7808333333333333	103.20944444444444
KUC	KI	1.0038888888888888	173.03111111111113
KUF	RU	53.50388888888889	50.151666666666664
KUG	AU	-10.226666666666667	142.21972222222223
KUH	JP	43.04083333333333	144.19305555555556
KUK	US	60.87388888888889	-162.52416666666667
KUL	MY	3.1333333333333333	101.7
KUM	JP	30.385555555555555	130.65944444444446
KUN	LT	54.96388888888889	24.084722222222222
KUO	FI	63.007222222222225	27.797777777777778
KUS	GL	65.57333333333332	-37.134166666666665
KUT	GE	42.17666666666666	42.4825
KUU	IN	31.87666666666667	77.15444444444445
KUV	KR	35.903888888888886	126.61583333333333
KUZ	GL	65.86388888888888	-36.995555555555555
KVA	GR	40.913333333333334	24.61916666666667
KVC	US	55.11666666666667	-162.265
KVG	PG	-2.5794444444444444	150.80805555555557
KVK	RU	67.57638888888889	33.58027777777778
KVL	US	67.73611111111111	-164.56361111111113
KVO	RS	43.81861111111112	20.58611111111111
KVR	RU	44.2725	135.0288888888889
KVX	RU	58.50083333333333	49.342222222222226
KWA	MH	8.72	167.73166666666665
KWE	CN	26.538611111111113	106.80083333333333
KWI	KW	29.226666666666667	47.96888888888889
KWJ	KR	35.12638888888889	126.80888888888889
KWK	US	59.87638888888889	-163.1686111111111
KWL	CN	25.218055555555555	110.03916666666666
KWM	AU	-15.485277777777776	141.75222222222223
KWN	US	59.756388888888885	-161.8836111111111
KWP	US	57.769999999999996	-153.54611111111112
KWT	US	60.79361111111111	-161.44194444444446
KWZ	CD	-10.765833333333333	25.50583333333333
KXA	US	55.53611111111111	-132.4013888888889
KXB	ID	-4.341944444444444	121.52166666666666
KXF	FJ	-17.34583333333333	179.42194444444445
KXK	RU	50.407777777777774	136.93583333333333
KXO	UG	-1.2833333333333332	29.71972222222222
KXU	PF	-16.339444444444442	-144.40305555555557
KYA	TR	37.97888888888889	32.56194444444444
KYD	TW	22.083333333333332	121.5
KYK	US	57.565555555555555	-154.45194444444442
KYP	MM	19.42638888888889	93.53472222222221
KYS	ML	14.481666666666667	-11.404722222222222
KYU	US	64.87638888888888	-157.72444444444446
KYZ	RU	51.67333333333333	94.40805555555556
KZB	US	57.55	-153.75
KZI	GR	40.28611111111111	21.840833333333332
KZN	RU	55.60611111111111	49.27861111111111
KZO	KZ	44.7075	65.59222222222222
KZR	TR	39.11277777777778	30.128611111111113
KZS	GR	36.14194444444444	29.57638888888889
LAD	AO	-8.858333333333333	13.231111111111112
LAE	PG	-6.569722222222222	146.72611111111112
LAH	ID	-0.6347222222222222	127.50416666666666
LAK	CA	68.22333333333333	-135.00583333333333
LAN	US	42.77861111111111	-84.58722222222222
LAO	PH	18.178055555555556	120.53138888888888
LAP	MX	24.072777777777777	-110.3625
LAQ	LY	32.78861111111111	21.964444444444442
LAR	US	41.31194444444444	-105.67500000000001
LAS	US	36.083333333333336	-115.16666666666667
LAU	KE	-2.2525	40.91305555555555
LAW	US	34.56666666666667	-98.41638888888889
LAX	US	33.93333333333333	-118.4
LBA	GB	53.865833333333335	-1.6605555555555556
LBB	US	33.666666666666664	-101.83333333333333
LBC	DE	53.805277777777775	10.719166666666666
LBD	TJ	40.21527777777778	69.69472222222223
LBE	US	40.27583333333333	-79.40472222222223
LBF	US	41.13111111111111	-100.69305555555556
LBJ	ID	-8.486666666666666	119.88916666666667
LBL	US	37.04416666666666	-100.96000000000001
LBP	MY	3.2022222222222223	115.40222222222222
LBR	BR	-7.278888888888889	-64.76972222222223
LBS	FJ	-16.467777777777776	179.33972222222224
LBU	MY	5.2972222222222225	115.2525
LBV	GA	0.45861111111111114	9.412222222222223
LCA	CY	34.875	33.624722222222225
LCE	HN	15.7425	-86.85305555555556
LCG	ES	43.30222222222222	-8.377222222222223
LCH	US	30.12611111111111	-93.22333333333333
LCJ	PL	51.759166666666665	19.45583333333333
LCX	CN	25.675555555555558	116.74555555555555
LDB	BR	-23.33361111111111	-51.13
LDE	FR	43.18555555555555	-0.002777777777777778
LDH	AU	-31.538611111111113	159.07611111111112
LDS	CN	47.75138888888889	129.01777777777778
LDU	MY	5.030277777777778	118.32833333333333
LDY	GB	55.04277777777778	-7.161111111111111
LDZ	ZA	-24.808055555555555	31.504166666666666
LEA	AU	-22.235555555555557	114.0886111111111
LEB	US	43.62777777777778	-72.30722222222222
LEC	BR	-12.48	-41.28111111111111
LED	RU	59.95	30.05
LEH	FR	49.53388888888889	0.08805555555555555
LEI	ES	36.84388888888889	-2.37
LEN	ES	42.58888888888889	-5.655555555555556
LEQ	GB	50.10277777777778	-5.670555555555556
LER	AU	-27.844166666666666	120.70444444444445
LET	CO	-4.193611111111111	-69.94305555555556
LEU	ES	42.33861111111111	1.4091666666666667
LEX	US	38.03333333333333	-84.6
LFM	IR	27.373055555555556	53.18805555555555
LFQ	CN	36.03972222222222	111.49166666666667
LFR	VE	8.239166666666666	-72.27111111111111
LFT	US	30.205277777777777	-91.9875
LFW	TG	6.165555555555556	1.2544444444444445
LGB	US	33.81777777777778	-118.15166666666667
LGG	BE	50.63333333333333	5.583333333333333
LGI	BS	23.17888888888889	-75.0936111111111
LGK	MY	6.338611111111111	99.73222222222222
LGL	MY	3.4211111111111108	115.15333333333334
LGP	PH	13.157222222222222	123.73444444444445
LGZ	CN	28.42666666666667	92.3461111111111
LHE	PK	31.521666666666665	74.40361111111112
LHG	AU	-29.4	147.96666666666667
LHN	BR	-19.357222222222223	-40.069722222222225
LHW	CN	36.516666666666666	103.61666666666666
LIF	NC	-20.77472222222222	167.23999999999998
LIG	FR	45.86083333333333	1.1802777777777778
LIH	US	21.976388888888888	-159.3361111111111
LIK	MH	9.823333333333332	169.3075
LIL	FR	50.56666666666667	3.1
LIM	PE	-12.021944444444445	-77.11444444444444
LIO	CR	9.961944444444443	-83.02694444444444
LIQ	CD	2.1711111111111108	21.496944444444445
LIR	CR	10.593333333333334	-85.54444444444444
LIS	PT	38.774166666666666	-9.134166666666665
LIT	US	34.72944444444445	-92.22444444444444
LIX	MW	-12.080277777777777	34.73638888888889
LJA	CD	-3.462777777777778	23.618333333333332
LJG	CN	26.674166666666668	100.24361111111111
LJU	SI	46.22361111111111	14.4575
LKA	ID	-8.274166666666668	123.00055555555555
LKB	FJ	-18.199166666666667	-178.81694444444443
LKH	MY	3.3119444444444444	114.78694444444444
LKI	ID	2.410833333333333	96.32583333333334
LKL	NO	70.06888888888888	24.973611111111108
LKN	NO	68.15444444444445	13.611944444444443
LKO	IN	26.760555555555555	80.88944444444445
LKY	TZ	-3.3755555555555556	35.81805555555556
LLA	SE	65.54388888888889	22.121944444444445
LLB	CN	25.448333333333334	107.96083333333334
LLF	CN	26.341666666666665	111.60888888888888
LLI	ET	11.975	38.980000000000004
LLJ	ID	-3.2855555555555553	102.91555555555556
LLK	AZ	38.75888888888889	48.80638888888888
LLM	SB	-10.275833333333335	166.29111111111112
LLO	ID	-3.0825	120.245
LLU	GL	60.46472222222223	-45.56944444444445
LLV	CN	37.68138888888889	111.14250000000001
LLW	MW	-13.789444444444444	33.78111111111111
LMA	US	63.88611111111111	-152.30194444444444
LMC	CO	2.1752777777777776	-73.78666666666666
LME	FR	48.0	0.2
LML	MH	8.921944444444444	166.26666666666668
LMM	MX	25.685277777777777	-109.08083333333333
LMN	MY	4.808055555555556	115.01027777777777
LMP	IT	35.49805555555556	12.618333333333334
LMU	ID	2.9647222222222225	105.75555555555556
LMV	MV	5.459444444444444	73.37055555555555
LMZ	MZ	-10.766666666666667	40.483333333333334
LNB	VU	-16.584999999999997	168.15972222222223
LNE	VU	-15.864166666666666	168.1711111111111
LNJ	CN	23.73888888888889	100.025
LNK	US	40.85111111111111	-96.75916666666667
LNL	CN	33.790277777777774	105.78916666666666
LNO	AU	-28.881944444444446	121.3125
LNS	US	40.12166666666667	-76.2961111111111
LNU	ID	3.5752777777777776	116.61972222222222
LNV	PG	-3.0425	152.6277777777778
LNY	US	20.785555555555558	-156.95138888888889
LNZ	AT	48.23361111111111	14.1875
LOD	VU	-15.305833333333334	167.96777777777777
LOE	TH	17.439166666666665	101.72194444444445
LOH	EC	-3.9958333333333336	-79.37166666666666
LOK	KE	3.1216666666666666	35.605555555555554
LON	GB	51.5	-0.16666666666666666
LOO	DZ	33.764722222222225	2.9274999999999998
LOP	ID	-8.757222222222222	116.27666666666667
LOS	NG	6.5775	3.3211111111111107
LOY	KE	2.763611111111111	36.718333333333334
LPA	ES	27.931944444444447	-15.386666666666667
LPB	BO	-16.513333333333332	-68.19222222222223
LPC	US	34.666666666666664	-120.46944444444445
LPF	CN	26.608611111111113	104.97833333333334
LPI	SE	58.40222222222222	15.525555555555556
LPK	RU	52.6375	39.45194444444445
LPL	GB	53.33361111111111	-2.8497222222222223
LPM	VU	-16.45777777777778	167.82888888888888
LPP	FI	61.044444444444444	28.144444444444446
LPQ	LA	19.897777777777776	102.16083333333334
LPS	US	48.483333333333334	-122.93777777777778
LPT	TH	18.272222222222222	99.50416666666666
LPY	FR	45.07972222222222	3.7633333333333328
LQM	CO	-0.1822222222222222	-74.77083333333333
LRD	US	27.54388888888889	-99.46166666666667
LRE	AU	-23.431944444444447	144.2777777777778
LRH	FR	46.17916666666667	-1.1952777777777779
LRM	DO	18.450833333333332	-68.91194444444444
LRR	IR	27.673055555555557	54.38722222222222
LRS	GR	37.184999999999995	26.80027777777778
LRT	FR	47.760555555555555	-3.4400000000000004
LRU	US	32.3	-106.93333333333334
LRV	VE	11.947222222222223	-66.67166666666667
LSC	CL	-29.91638888888889	-71.19944444444445
LSE	US	43.87888888888889	-91.25666666666666
LSH	MM	22.977777777777778	97.75222222222222
LSP	VE	11.780833333333334	-70.15138888888889
LSQ	CL	-37.416666666666664	-72.35
LSS	GP	15.864444444444445	-61.580555555555556
LST	AU	-41.54527777777778	147.2111111111111
LSW	ID	5.226666666666667	96.95027777777779
LTI	MN	46.376666666666665	96.22194444444445
LTK	SY	35.401111111111106	35.948611111111106
LTM	GY	3.4	-59.8
LTO	MX	25.989166666666666	-111.34833333333333
LTS	US	34.7	-99.33333333333333
LTX	EC	-0.9075	-78.61583333333333
LUA	NP	27.686666666666667	86.72944444444444
LUD	NA	-26.6875	15.242777777777777
LUL	US	31.666666666666668	-89.16666666666667
LUM	CN	24.40138888888889	98.53222222222222
LUN	ZM	-15.330833333333333	28.4525
LUO	AO	-11.767222222222223	19.89388888888889
LUP	US	21.210277777777776	-156.97555555555556
LUQ	AR	-33.27222222222222	-66.35666666666665
LUR	US	68.875	-166.10999999999999
LUV	ID	-5.661666666666667	132.7313888888889
LUW	ID	-1.0380555555555557	122.77277777777778
LUX	LU	49.623333333333335	6.204444444444444
LUZ	PL	51.24638888888889	22.56833333333333
LVI	ZM	-17.821666666666665	25.822777777777777
LVO	AU	-28.613611111111112	122.4238888888889
LWB	US	37.85611111111111	-80.40194444444445
LWE	ID	-8.361944444444443	123.43861111111111
LWS	US	46.37555555555556	-117.01361111111112
LWY	MY	4.849722222222222	115.40805555555556
LXA	CN	29.298055555555557	90.91222222222223
LXG	LA	20.96222222222222	101.40305555555557
LXR	EG	25.671111111111113	32.70666666666667
LXS	GR	39.91694444444444	25.23638888888889
LYA	CN	34.74138888888889	112.38944444444445
LYB	KY	19.666666666666668	-80.08333333333333
LYC	SE	64.54833333333333	18.71611111111111
LYG	CN	34.416666666666664	119.18083333333334
LYH	US	37.32666666666667	-79.20055555555555
LYI	CN	35.04944444444444	118.41194444444444
LYP	PK	31.365000000000002	72.99472222222222
LYR	NO	78.2461111111111	15.465555555555556
LYS	FR	45.733333333333334	4.933333333333334
LZG	CN	31.5025	106.03444444444445
LZH	CN	24.20777777777778	109.3913888888889
LZN	TW	26.159444444444443	119.95833333333334
LZO	CN	29.030555555555555	105.46888888888888
LZU	US	33.97805555555556	-83.96222222222222
LZY	CN	29.305833333333332	94.3386111111111
MAA	IN	12.994444444444444	80.18055555555556
MAB	BR	-5.368611111111111	-49.13805555555555
MAD	ES	40.46666666666667	-3.5666666666666664
MAF	US	31.933333333333334	-102.2
MAG	PG	-5.207222222222223	145.78861111111112
MAH	ES	39.862500000000004	4.2186111111111115
MAJ	MH	7.064722222222222	171.27194444444447
MAM	MX	25.77	-97.52527777777777
MAN	GB	53.353611111111114	-2.275
MAO	BR	-3.063611111111111	-60.00666666666667
MAQ	TH	16.699722222222224	98.5436111111111
MAR	VE	10.558333333333334	-71.72777777777777
MAS	PG	-2.065	147.42499999999998
MAU	PF	-16.42638888888889	-152.2436111111111
MAV	MH	8.705555555555556	171.23083333333332
MAZ	PR	18.25583333333333	-67.14861111111112
MBA	KE	-4.0280555555555555	39.599722222222226
MBB	AU	-21.162499999999998	119.83527777777778
MBE	JP	44.303888888888885	143.40416666666667
MBI	TZ	-8.919722222222221	33.46388888888889
MBJ	JM	18.503611111111113	-77.91333333333334
MBL	US	44.27305555555555	-86.25222222222222
MBQ	UG	-0.55	30.6
MBS	US	43.53194444444444	-84.0825
MBT	PH	12.36888888888889	123.62944444444443
MBW	AU	-37.975833333333334	145.10222222222222
MBZ	BR	-3.4166666666666665	-57.666666666666664
MCE	US	37.28333333333333	-120.51666666666667
MCG	US	62.953611111111115	-155.60555555555555
MCK	US	40.20777777777778	-100.59277777777777
MCM	MC	43.726111111111116	7.42
MCN	US	32.68333333333333	-83.65
MCP	BR	0.050555555555555555	-51.07222222222222
MCT	OM	23.592777777777776	58.281666666666666
MCV	AU	-16.442222222222224	136.08305555555555
MCW	US	43.155833333333334	-93.33583333333333
MCX	RU	42.816944444444445	47.65222222222222
MCY	AU	-26.603333333333335	153.09111111111113
MCZ	BR	-9.510833333333334	-35.791666666666664
MDC	ID	1.5491666666666666	124.9263888888889
MDE	CO	6.233333333333333	-75.58333333333333
MDG	CN	44.524166666666666	129.5688888888889
MDI	NG	7.716666666666667	8.6
MDK	CD	0.0225	18.288611111111113
MDL	MM	21.702222222222222	95.97805555555556
MDQ	AR	-37.93416666666666	-57.57333333333334
MDR	KE	-1.2988888888888888	35.064166666666665
MDU	PG	-6.147777777777778	143.65722222222223
MDZ	AR	-32.83166666666667	-68.79277777777777
MEC	EC	-0.9461111111111112	-80.67888888888889
MED	SA	24.553333333333335	39.705000000000005
MEE	NC	-21.481666666666666	168.0375
MEH	NO	71.0286111111111	27.826944444444443
MEI	US	32.33277777777778	-88.75194444444445
MEL	AU	-37.733333333333334	144.90555555555557
MEM	US	35.0425	-89.97666666666667
MEN	FR	44.50416666666667	3.5275
MEQ	ID	4.045555555555556	96.24944444444445
MES	ID	3.591388888888889	98.66916666666667
MEU	BR	-0.8844444444444444	-52.6
MEX	MX	19.433333333333334	-99.08333333333333
MFA	TZ	-7.912777777777778	39.66611111111111
MFE	US	26.175833333333333	-98.23861111111111
MFJ	FJ	-18.566944444444445	179.95277777777775
MFK	TW	26.223888888888887	120.00277777777778
MFM	MO	22.149444444444445	113.59166666666667
MFR	US	42.37416666666667	-122.8736111111111
MFU	ZM	-13.259722222222223	31.933888888888887
MGA	NI	12.141388888888889	-86.16805555555555
MGB	AU	-37.745555555555555	140.78527777777776
MGF	BR	-23.47611111111111	-52.01583333333333
MGH	ZA	-30.8575	30.343055555555555
MGM	US	32.3	-86.4
MGQ	SO	2.0147222222222223	45.305
MGR	US	31.083333333333332	-83.8
MGS	CK	-21.89388888888889	-157.90833333333333
MGT	AU	-12.094444444444445	134.8936111111111
MGW	US	39.64111111111111	-79.9175
MGZ	MM	12.439722222222223	98.62138888888889
MHC	CL	-42.343333333333334	-73.71611111111112
MHD	IR	36.23416666666667	59.644999999999996
MHH	BS	26.511388888888888	-77.08361111111111
MHK	US	39.14222222222222	-96.66916666666667
MHQ	FI	60.12166666666667	19.8975
MHT	US	42.9325	-71.43555555555555
MHX	CK	-10.36888888888889	-161.0
MIA	US	25.8	-80.28333333333333
MID	MX	20.936944444444446	-89.65777777777778
MIG	CN	31.42888888888889	104.74083333333333
MII	BR	-22.196944444444444	-49.92638888888889
MIJ	MH	6.084722222222222	171.73083333333332
MIL	IT	45.46666666666667	9.202777777777778
MIM	AU	-36.90861111111111	149.9013888888889
MIR	TN	35.75805555555556	10.754722222222222
MIS	PG	-10.689444444444444	152.8361111111111
MIU	NG	11.855277777777777	13.080833333333333
MJB	MH	10.283333333333333	170.8686111111111
MJC	CI	7.271944444444444	-7.5874999999999995
MJE	MH	8.163333333333334	168.17444444444445
MJF	NO	65.78388888888888	13.215
MJI	LY	32.89333333333333	13.289722222222222
MJK	AU	-25.89527777777778	113.57583333333334
MJM	CD	-6.1211111111111105	23.56888888888889
MJN	MG	-15.667222222222222	46.35194444444445
MJT	GR	39.05333333333333	26.602222222222224
MJU	ID	-2.5883333333333334	119.02777777777777
MJY	RU	58.18194444444444	94.73944444444444
MJZ	RU	62.53472222222222	114.03888888888889
MKC	US	39.11666666666667	-94.58333333333333
MKE	US	42.95	-87.9
MKG	US	43.169444444444444	-86.23833333333333
MKK	US	21.151666666666664	-157.0977777777778
MKL	US	35.6025	-88.91388888888889
MKM	MY	2.9069444444444446	112.075
MKP	PF	-16.583888888888886	-143.65833333333333
MKQ	ID	-8.520277777777778	140.41833333333332
MKR	AU	-26.611666666666668	118.54777777777778
MKW	ID	-0.8919444444444444	134.04916666666668
MKY	AU	-21.171666666666667	149.1797222222222
MKZ	MY	2.263611111111111	102.25194444444445
MLA	MT	35.8575	14.477500000000001
MLB	US	28.102777777777778	-80.64527777777778
MLE	MV	4.191666666666667	73.52916666666667
MLG	ID	-7.926666666666667	112.71444444444445
MLI	US	41.448611111111106	-90.5075
MLL	US	61.86416666666667	-162.02611111111113
MLM	MX	19.85	-101.02555555555556
MLN	ES	35.27972222222222	-2.956388888888889
MLO	GR	36.696666666666665	24.472777777777775
MLU	US	32.51083333333333	-92.03777777777778
MLW	LR	6.233333333333333	-10.366666666666667
MLX	TR	38.43527777777778	38.09111111111111
MLY	US	64.99805555555555	-150.64111111111112
MMA	SE	55.6	13.066666666666666
MMB	JP	43.88055555555555	144.16416666666666
MMD	JP	25.84722222222222	131.26388888888889
MME	GB	54.509166666666665	-1.4294444444444445
MMG	AU	-28.116111111111113	117.84166666666667
MMH	US	37.62444444444444	-118.84055555555555
MMJ	JP	36.166666666666664	137.92277777777778
MMK	RU	68.78166666666667	32.75083333333333
MMO	CV	15.155833333333334	-23.21361111111111
MMU	US	40.797777777777775	-74.41527777777779
MMY	JP	24.782777777777778	125.295
MNA	ID	4.006666666666667	126.67361111111111
MNB	CD	-5.933333333333334	12.35
MNC	MZ	-14.485833333333332	40.712500000000006
MNG	AU	-12.056111111111111	134.23416666666665
MNI	MS	16.79138888888889	-62.19416666666666
MNK	KI	1.003611111111111	173.03111111111113
MNL	PH	14.516666666666667	121.01666666666667
MNO	CD	-7.289166666666667	27.39388888888889
MNS	ZM	-11.138333333333334	28.875
MNT	US	65.14722222222223	-149.3675
MNX	BR	-5.816666666666666	-61.28333333333333
MNY	SB	-7.416666666666667	155.5652777777778
MNZ	US	38.721944444444446	-77.51444444444445
MOA	CU	20.653888888888886	-74.92222222222223
MOB	US	30.683333333333334	-88.03333333333333
MOC	BR	-16.706944444444442	-43.81888888888889
MOF	ID	-8.640555555555554	122.23694444444445
MOH	ID	-2.202777777777778	121.66111111111111
MOI	CK	-19.842499999999998	-157.70333333333332
MOL	NO	62.74472222222222	7.2625
MON	NZ	-43.78333333333333	170.13333333333333
MOO	AU	-28.099444444444444	140.19833333333332
MOQ	MG	-20.284722222222225	44.3175
MOT	US	48.266666666666666	-101.28333333333333
MOU	US	62.09527777777778	-163.6822222222222
MOV	AU	-22.058611111111112	148.07638888888889
MOW	RU	55.65555555555555	37.52222222222222
MOZ	PF	-17.490000000000002	-149.76194444444445
MPA	NA	-17.633333333333333	24.183333333333334
MPH	PH	11.924444444444443	121.95416666666667
MPL	FR	43.6	3.8833333333333333
MPM	MZ	-25.920833333333334	32.572500000000005
MPN	FK	-51.82277777777778	-58.44555555555555
MQF	RU	53.393055555555556	58.75555555555555
MQJ	RU	66.45083333333334	143.2613888888889
MQL	AU	-34.22916666666667	142.08555555555557
MQM	TR	37.223333333333336	40.63166666666667
MQN	NO	66.36666666666666	14.3
MQP	ZA	-25.383055555555558	31.105555555555558
MQS	VC	12.888333333333334	-61.17916666666667
MQT	US	46.353611111111114	-87.39527777777778
MQX	ET	13.4675	39.53333333333333
MRA	LY	32.32194444444445	15.061388888888889
MRD	VE	8.582222222222223	-71.16111111111111
MRE	KE	-1.4044444444444444	35.00944444444445
MRS	FR	43.3	5.366666666666666
MRU	MU	-20.43027777777778	57.683611111111105
MRV	RU	44.225	43.081944444444446
MRX	IR	30.552222222222223	49.155833333333334
MRY	US	36.583333333333336	-121.85
MRZ	AU	-29.49888888888889	149.84472222222223
MSA	CA	53.44138888888889	-91.76305555555555
MSH	OM	20.675555555555558	58.25
MSJ	JP	40.70333333333333	141.36833333333334
MSL	US	34.74638888888889	-87.61
MSN	US	43.13972222222222	-89.33749999999999
MSO	US	46.91638888888889	-114.09055555555555
MSP	US	44.9	-93.21666666666667
MSQ	BY	53.86666666666667	27.533333333333335
MSR	TR	38.74777777777778	41.66111111111111
MSS	US	44.93583333333333	-74.84555555555555
MST	NL	50.91583333333333	5.776944444444444
MSU	LS	-29.46222222222222	27.552500000000002
MSY	US	29.95	-90.06666666666666
MSZ	AO	-15.261666666666667	12.147222222222222
MTE	BR	-2.0166666666666666	-54.06666666666667
MTJ	US	38.50527777777778	-107.89416666666668
MTK	KI	3.374722222222222	172.99249999999998
MTM	US	55.13333333333333	-131.58333333333334
MTR	CO	8.823611111111111	-75.82583333333334
MTS	SZ	-26.528888888888886	31.3075
MTT	MX	18.103333333333335	-94.58055555555555
MTV	VU	-13.666111111111112	167.71138888888888
MTY	MX	25.666666666666668	-100.31666666666666
MUA	SB	-8.327222222222222	157.26166666666666
MUB	BW	-19.972499999999997	23.43111111111111
MUC	DE	48.35	11.783333333333333
MUE	US	20.00138888888889	-155.66805555555555
MUH	EG	31.333333333333332	27.216666666666665
MUK	CK	-20.136388888888888	-157.34583333333333
MUN	VE	9.749166666666666	-63.15333333333333
MUR	MY	4.179444444444445	114.3275
MUU	BR	-13.90611111111111	-38.94083333333333
MUX	PK	30.203333333333333	71.41916666666667
MVB	GA	-1.656111111111111	13.438055555555556
MVD	UY	-34.83833333333334	-56.030833333333334
MVF	BR	-5.200555555555556	-37.36361111111111
MVP	CO	1.253611111111111	-70.23388888888888
MVR	CM	10.451388888888888	14.2575
MVT	PF	-14.869722222222222	-148.71305555555554
MVY	US	41.39333333333333	-70.6125
MWA	US	37.75138888888889	-89.01666666666667
MWF	VU	-14.997777777777777	168.08166666666665
MWK	ID	3.3	106.26555555555555
MWS	ID	-2.8008333333333333	122.14305555555556
MWX	KR	34.99138888888889	126.38277777777778
MWZ	TZ	-2.4444444444444446	32.93277777777777
MXH	PG	-6.362777777777778	143.23111111111112
MXL	MX	32.63055555555555	-115.24166666666667
MXQ	BR	-13.389444444444443	-38.91
MXV	MN	49.663333333333334	100.09944444444444
MXX	SE	60.95777777777778	14.511388888888888
MXY	US	61.416666666666664	-142.91666666666666
MXZ	CN	24.264166666666668	116.09833333333333
MYA	AU	-35.89833333333333	150.1461111111111
MYD	KE	-3.229166666666667	40.10166666666667
MYE	JP	34.07361111111111	139.5602777777778
MYG	BS	22.379444444444445	-73.01361111111112
MYI	AU	-9.915277777777778	144.05472222222224
MYJ	JP	33.827222222222225	132.69972222222222
MYK	US	61.36666666666667	-142.68333333333334
MYP	TM	37.62305555555555	61.895833333333336
MYQ	IN	12.231666666666667	76.65722222222223
MYR	US	33.7	-78.96666666666667
MYT	MM	25.384166666666665	97.35388888888889
MYU	US	60.3725	-166.27166666666668
MYV	US	39.1	-121.56666666666666
MYW	TZ	-10.339166666666667	40.181666666666665
MYY	MY	4.325277777777777	113.98833333333333
MZA	PE	-11.325555555555555	-74.53555555555555
MZG	TW	23.56861111111111	119.62833333333333
MZH	TR	40.828611111111115	35.52027777777778
MZK	KI	2.058611111111111	173.27194444444447
MZL	CO	5.029722222222222	-75.46472222222222
MZO	CU	20.28805555555556	-77.08916666666666
MZR	AF	36.706944444444446	67.20944444444444
MZT	MX	23.161388888888887	-106.26611111111112
MZV	MY	4.0505555555555555	114.80916666666667
MZW	DZ	33.53583333333333	-0.2425
NAA	AU	-30.319166666666668	149.82722222222222
NAG	IN	21.092222222222222	79.04722222222222
NAH	ID	3.6833333333333336	125.52805555555555
NAJ	AZ	39.18888888888888	45.458333333333336
NAM	ID	-3.2372222222222224	127.10027777777778
NAN	FJ	-17.755	177.44361111111112
NAO	CN	30.79388888888889	106.15972222222223
NAP	IT	40.88333333333333	14.283333333333333
NAQ	GL	77.48861111111111	-69.38777777777779
NAS	BS	25.03888888888889	-77.46611111111112
NAT	BR	-5.768055555555556	-35.376111111111115
NAU	PF	-14.176944444444445	-141.26722222222224
NAV	TR	38.77194444444444	34.53444444444444
NAW	TH	6.523333333333333	101.74472222222222
NBC	RU	55.56666666666667	52.1
NBE	TN	36.07555555555556	10.438333333333334
NBO	KE	-1.3166666666666667	36.93333333333333
NBS	CN	42.065	127.60249999999999
NBW	CU	19.906666666666666	-75.20527777777778
NBX	ID	-3.3680555555555562	135.49666666666664
NCE	FR	43.665277777777774	7.215
NCL	GB	55.0375	-1.6916666666666667
NCN	US	60.07944444444445	-147.99499999999998
NCU	UZ	42.486666666666665	59.62277777777778
NCY	FR	45.93083333333333	6.106388888888889
NDB	MR	20.93305555555556	-17.029999999999998
NDE	KE	3.934166666666667	41.84444444444445
NDG	CN	47.23972222222222	123.91805555555555
NDJ	TD	12.13361111111111	15.033888888888889
NDK	MH	5.633055555555556	168.12444444444446
NDR	MA	34.98888888888889	-3.0283333333333333
NDU	NA	-17.95611111111111	19.722777777777775
NEI	RU	45.08305555555556	136.59055555555557
NER	RU	56.91138888888889	124.90305555555557
NEU	LA	20.41861111111111	104.0675
NEV	KN	17.205555555555556	-62.59
NFL	US	39.46666666666667	-118.78333333333333
NGB	CN	29.826666666666668	121.46194444444444
NGE	CM	7.356944444444444	13.559166666666668
NGI	FJ	-18.115555555555556	179.33972222222224
NGK	RU	51.781666666666666	143.14
NGO	JP	35.13333333333333	136.88333333333333
NGQ	CN	32.099722222222226	80.05333333333333
